Store_ID,Store_Name,Channel,State,City,District,Pincode,Latitude,Longitude,Opening_Date,Store_Status,Owner_Type
S000001,"Choudhury, Bakshi and Maharaj",Kirana,Maharashtra,Pune,Pune,321819,29.504964,75.101864,2020-11-08,Active,Independent
S000002,Balan Inc,Convenience Store,Maharashtra,Pune,Pune,389083,20.235733,68.864119,2025-01-15,Active,Independent
S000003,Kannan-Sen,Convenience Store,Maharashtra,Mumbai,Mumbai,026542,13.766292,86.846649,2013-10-28,Closed,Independent
S000004,Chaudry-Chanda,Convenience Store,West Bengal,Kolkata,Kolkata,155940,16.067531,93.209709,2022-02-17,Active,Chain
S000005,"Dash, Radhakrishnan and Brar",Hypermarket,Delhi,New Delhi,New Delhi,959310,12.508905,95.759179,2014-04-03,Closed,Independent
S000006,Buch-Kaul,Pharmacy,Maharashtra,Pune,Pune,647525,10.804775,92.577337,2018-08-03,Closed,Independent
S000007,Loke Ltd,Convenience Store,West Bengal,Kolkata,Kolkata,928327,11.619959,94.746566,2019-05-30,Active,Chain
S000008,Kanda-Nair,Convenience Store,Delhi,New Delhi,New Delhi,305641,13.576369,70.017099,2013-09-05,Active,Chain
S000009,"Murty, Kala and Tata",Supermarket,Maharashtra,Pune,Pune,724238,33.128026,79.023661,2024-11-02,Closed,Chain
S000010,Sangha-Rastogi,Hypermarket,Karnataka,Bengaluru,Bengaluru Urban,328710,18.30285,87.43508,2010-03-25,Active,Independent
S000011,Dutta Ltd,Supermarket,Tamil Nadu,Chennai,Chennai,916697,21.405546,75.828487,2024-07-02,Active,Chain
S000012,Apte-Contractor,Supermarket,Maharashtra,Mumbai,Mumbai,514627,31.832275,91.346328,2006-08-11,Closed,Chain
S000013,"Lall, Tella and Gokhale",Supermarket,Maharashtra,Pune,Pune,489325,34.480948,84.448221,2011-12-30,Closed,Independent
S000014,"Wali, Acharya and Naik",Pharmacy,West Bengal,Kolkata,Kolkata,015430,33.655811,86.642704,2014-09-11,Active,Chain
S000015,"Brar, Chada and Sunder",Supermarket,Karnataka,Bengaluru,Bengaluru Urban,822782,29.60468,83.630341,2015-07-09,Closed,Chain
S000016,"Sampath, Kakar and Zacharia",Supermarket,Delhi,New Delhi,New Delhi,465787,36.922448,72.011621,2010-08-13,Closed,Independent
S000017,Kar Inc,Kirana,Maharashtra,Mumbai,Mumbai,098393,12.432398,72.639478,2006-09-29,Closed,Independent
S000018,Bhargava and Sons,Pharmacy,Gujarat,Ahmedabad,Ahmedabad,051834,25.280764,81.573447,2023-01-06,Closed,Independent
S000019,Zacharia and Sons,Convenience Store,Maharashtra,Pune,Pune,376311,29.775456,90.289363,2021-03-01,Closed,Independent
S000020,Sampath-Roy,Pharmacy,Telangana,Hyderabad,Hyderabad,010651,12.586575,68.094114,2014-12-17,Closed,Independent
S000021,Gupta PLC,Hypermarket,Maharashtra,Pune,Pune,262473,32.408411,82.722224,2009-01-23,Active,Independent
S000022,Chaudhari-Bedi,Supermarket,Delhi,New Delhi,New Delhi,132677,23.641992,90.580168,2013-10-09,Active,Chain
S000023,Bhargava-Gala,Kirana,West Bengal,Kolkata,Kolkata,064746,11.244164,78.526442,2025-05-29,Closed,Independent
S000024,"Sur, Dubey and Gupta",Supermarket,Maharashtra,Mumbai,Mumbai,309805,33.462278,95.461534,2008-06-11,Active,Chain
S000025,Sood PLC,Convenience Store,Maharashtra,Pune,Pune,081219,30.209198,71.723352,2008-10-23,Closed,Independent
S000026,"Keer, Raval and Dar",Convenience Store,Telangana,Hyderabad,Hyderabad,990916,33.300558,80.271,2026-05-11,Active,Independent
S000027,"Virk, Mutti and Lal",Pharmacy,Telangana,Hyderabad,Hyderabad,534624,36.859331,86.846464,2022-01-21,Closed,Chain
S000028,Bora-Andra,Supermarket,Maharashtra,Pune,Pune,991183,14.516223,77.804481,2023-09-17,Active,Independent
S000029,Deo-Palla,Kirana,Maharashtra,Mumbai,Mumbai,354278,28.527387,69.707339,2016-10-16,Active,Independent
S000030,"Wadhwa, Anand and Mistry",Kirana,Delhi,New Delhi,New Delhi,241182,22.910527,76.075841,2015-10-07,Closed,Independent
S000031,Kade-Oza,Convenience Store,Karnataka,Bengaluru,Bengaluru Urban,487401,24.710138,75.04692,2020-11-29,Closed,Chain
S000032,Basu-Aggarwal,Kirana,Tamil Nadu,Chennai,Chennai,242786,10.810994,80.500484,2025-08-01,Closed,Chain
S000033,Choudhury Inc,Kirana,West Bengal,Kolkata,Kolkata,805982,27.527572,96.540791,2021-02-14,Active,Independent
S000034,Barman LLC,Hypermarket,Gujarat,Ahmedabad,Ahmedabad,053315,31.217183,71.168802,2025-07-19,Active,Independent
S000035,Dubey-Khalsa,Supermarket,West Bengal,Kolkata,Kolkata,260256,20.234568,76.077809,2014-12-11,Active,Independent
S000036,Dutta-Chokshi,Convenience Store,West Bengal,Kolkata,Kolkata,073375,10.839353,86.912202,2016-11-18,Active,Independent
S000037,Kapoor Inc,Supermarket,Tamil Nadu,Chennai,Chennai,654145,19.786008,81.959394,2023-10-31,Closed,Independent
S000038,Yadav-Narula,Pharmacy,Karnataka,Bengaluru,Bengaluru Urban,142940,8.062506,79.322231,2010-03-10,Closed,Chain
S000039,"Saraf, Pai and Murthy",Convenience Store,Gujarat,Ahmedabad,Ahmedabad,981693,27.194268,82.113471,2015-03-02,Active,Chain
S000040,Sarin Inc,Kirana,Tamil Nadu,Chennai,Chennai,561595,24.796228,83.723661,2010-09-27,Closed,Independent
S000041,"Mital, Tripathi and More",Convenience Store,Maharashtra,Mumbai,Mumbai,564823,21.826867,94.662227,2020-10-21,Active,Independent
S000042,"Raghavan, Ghosh and Mitra",Supermarket,Maharashtra,Pune,Pune,804436,9.987119,69.970865,2026-03-26,Active,Chain
S000043,"Nagy, Shroff and Sathe",Convenience Store,Maharashtra,Pune,Pune,387214,15.140245,85.241055,2024-01-14,Active,Chain
S000044,"Nayak, Chander and Keer",Hypermarket,Delhi,New Delhi,New Delhi,332003,13.923517,88.769562,2022-08-31,Active,Chain
S000045,"Bora, Shah and Sachdeva",Supermarket,Gujarat,Ahmedabad,Ahmedabad,676320,27.479016,76.699915,2010-02-15,Closed,Independent
S000046,Kanda-Goda,Pharmacy,Maharashtra,Mumbai,Mumbai,083172,26.013618,84.326816,2022-04-23,Active,Independent
S000047,"Wali, Nadig and Savant",Convenience Store,Tamil Nadu,Chennai,Chennai,872774,15.690812,95.064522,2014-11-29,Active,Independent
S000048,"Malhotra, Verma and Sundaram",Hypermarket,Delhi,New Delhi,New Delhi,471434,12.574658,92.178604,2017-12-04,Closed,Independent
S000049,Zachariah-Buch,Kirana,Telangana,Hyderabad,Hyderabad,236231,35.22897,71.894442,2020-08-12,Active,Independent
S000050,Narayanan-Shukla,Hypermarket,Karnataka,Bengaluru,Bengaluru Urban,036690,16.170932,74.10826,2026-02-01,Closed,Independent
S000051,Sood-Ahuja,Convenience Store,Telangana,Hyderabad,Hyderabad,466889,22.167424,94.254758,2014-01-01,Active,Independent
S000052,Kanda-Mahajan,Hypermarket,Gujarat,Ahmedabad,Ahmedabad,706562,9.278516,77.67314,2022-05-27,Active,Chain
S000053,Walla Inc,Pharmacy,Karnataka,Bengaluru,Bengaluru Urban,990162,23.998732,80.402921,2022-03-17,Active,Independent
S000054,Bedi LLC,Supermarket,Maharashtra,Pune,Pune,537556,23.822118,92.203256,2015-12-20,Active,Chain
S000055,Krishnan-Bumb,Kirana,Karnataka,Bengaluru,Bengaluru Urban,080531,16.939492,94.070463,2007-11-14,Active,Chain
S000056,Kota and Sons,Supermarket,Tamil Nadu,Chennai,Chennai,923271,27.341069,78.25668,2025-09-08,Closed,Independent
S000057,Shroff Ltd,Supermarket,Tamil Nadu,Chennai,Chennai,529912,36.309975,91.51238,2017-01-30,Closed,Independent
S000058,Bal LLC,Hypermarket,Karnataka,Bengaluru,Bengaluru Urban,631931,30.689208,79.939682,2016-10-04,Active,Chain
S000059,"Dara, Barman and Palan",Kirana,Karnataka,Bengaluru,Bengaluru Urban,518506,19.09371,69.123014,2023-03-07,Closed,Independent
S000060,Sant LLC,Pharmacy,Tamil Nadu,Chennai,Chennai,262849,18.140094,91.795555,2024-10-23,Active,Independent
S000061,Shroff-Sarin,Supermarket,Maharashtra,Mumbai,Mumbai,531473,19.555513,76.079489,2022-04-24,Active,Chain
S000062,"Raghavan, Nayar and Balakrishnan",Convenience Store,Delhi,New Delhi,New Delhi,527354,19.590673,96.453341,2018-01-29,Closed,Independent
S000063,Majumdar-Anne,Hypermarket,Maharashtra,Pune,Pune,136783,13.178467,95.913495,2022-09-12,Closed,Independent
S000064,"Swaminathan, Sem and Badal",Convenience Store,Maharashtra,Pune,Pune,436349,20.602349,89.127807,2019-01-21,Closed,Chain
S000065,Wali-Padmanabhan,Pharmacy,Maharashtra,Pune,Pune,855744,34.085637,73.512284,2015-01-20,Active,Chain
S000066,Dara Ltd,Convenience Store,Maharashtra,Mumbai,Mumbai,518233,34.84168,83.615108,2022-12-22,Active,Chain
S000067,Vohra-Mandal,Kirana,Gujarat,Ahmedabad,Ahmedabad,343524,35.51736,94.702355,2006-12-24,Closed,Independent
S000068,"Walla, Date and Mahal",Convenience Store,Telangana,Hyderabad,Hyderabad,084271,16.969255,79.843394,2006-12-01,Closed,Chain
S000069,"Mane, Singh and Srinivas",Supermarket,Karnataka,Bengaluru,Bengaluru Urban,520471,20.192944,95.270546,2008-09-21,Active,Chain
S000070,Swamy-Borah,Convenience Store,Gujarat,Ahmedabad,Ahmedabad,229413,32.17803,76.812374,2010-07-13,Active,Chain
S000071,"Saha, Kara and Virk",Pharmacy,Delhi,New Delhi,New Delhi,774964,20.811794,87.59319,2025-11-05,Closed,Independent
S000072,"Bhasin, Chaudhary and Johal",Hypermarket,Maharashtra,Pune,Pune,412328,22.948108,86.355285,2009-01-19,Closed,Independent
S000073,Agate Group,Hypermarket,Tamil Nadu,Chennai,Chennai,974034,14.514579,73.774768,2016-02-13,Active,Independent
S000074,"Setty, Bobal and Kaur",Pharmacy,Tamil Nadu,Chennai,Chennai,936183,25.726945,90.286191,2011-07-27,Closed,Chain
S000075,Dhar-Bora,Pharmacy,Tamil Nadu,Chennai,Chennai,249947,22.336938,75.075549,2010-09-24,Active,Independent
S000076,Modi-Rau,Supermarket,Gujarat,Ahmedabad,Ahmedabad,887719,13.100714,95.781015,2007-11-09,Closed,Independent
S000077,Naidu-Krishna,Kirana,Tamil Nadu,Chennai,Chennai,139904,21.237393,91.241081,2026-02-08,Closed,Chain
S000078,Gill Group,Convenience Store,Gujarat,Ahmedabad,Ahmedabad,429671,20.931495,72.615579,2022-06-29,Closed,Chain
S000079,Rege-Nath,Supermarket,Telangana,Hyderabad,Hyderabad,125674,32.356024,76.042029,2020-02-15,Closed,Independent
S000080,"Bansal, Sha and Chakrabarti",Pharmacy,Telangana,Hyderabad,Hyderabad,451680,10.247017,76.286116,2024-12-17,Closed,Chain
S000081,Sachdev-Bhagat,Convenience Store,Delhi,New Delhi,New Delhi,859770,10.336752,72.374089,2013-06-04,Closed,Independent
S000082,Deep-Mani,Kirana,Tamil Nadu,Chennai,Chennai,710932,20.031169,77.59556,2017-01-26,Closed,Chain
S000083,"Atwal, Reddy and Chander",Supermarket,Maharashtra,Mumbai,Mumbai,171274,32.153844,79.294828,2023-10-25,Active,Chain
S000084,"Mahajan, Sagar and Subramanian",Kirana,West Bengal,Kolkata,Kolkata,378263,35.339508,76.659767,2023-10-17,Closed,Chain
S000085,"Deshpande, Boase and Majumdar",Pharmacy,Tamil Nadu,Chennai,Chennai,584044,14.363227,80.639243,2026-06-21,Active,Chain
S000086,"Suri, Dixit and Sekhon",Pharmacy,Delhi,New Delhi,New Delhi,558867,29.00126,92.374664,2017-06-12,Active,Independent
S000087,Khare PLC,Convenience Store,Gujarat,Ahmedabad,Ahmedabad,360576,24.367368,68.785959,2019-08-21,Closed,Independent
S000088,"Doshi, Tandon and Bansal",Supermarket,West Bengal,Kolkata,Kolkata,895171,9.458254,78.994012,2024-05-24,Active,Chain
S000089,Aurora-Dhawan,Hypermarket,Delhi,New Delhi,New Delhi,217459,30.075662,78.99466,2020-01-09,Closed,Chain
S000090,"Buch, Narasimhan and Walla",Pharmacy,Maharashtra,Pune,Pune,578091,8.562115,83.643152,2014-06-27,Closed,Independent
S000091,"Mani, Karan and Chana",Kirana,Maharashtra,Pune,Pune,117240,29.872763,95.53874,2008-01-24,Active,Independent
S000092,Bhalla-Memon,Supermarket,Karnataka,Bengaluru,Bengaluru Urban,562386,11.660408,87.414306,2025-10-03,Active,Chain
S000093,"Gole, Garde and Gill",Hypermarket,Telangana,Hyderabad,Hyderabad,969379,12.865885,85.610177,2011-05-15,Active,Independent
S000094,Shenoy Ltd,Kirana,Telangana,Hyderabad,Hyderabad,740748,24.781857,94.937728,2011-11-16,Closed,Chain
S000095,Sathe LLC,Kirana,Tamil Nadu,Chennai,Chennai,647436,25.170838,92.086577,2022-12-10,Active,Independent
S000096,Khalsa Group,Convenience Store,Telangana,Hyderabad,Hyderabad,944064,31.360311,91.090589,2006-10-10,Active,Chain
S000097,"Bawa, Taneja and Mangat",Hypermarket,Gujarat,Ahmedabad,Ahmedabad,953394,9.999745,86.778754,2011-02-25,Active,Chain
S000098,"Chatterjee, Baral and More",Kirana,West Bengal,Kolkata,Kolkata,095214,20.572179,78.503453,2017-08-13,Closed,Independent
S000099,"Sagar, Gill and Iyer",Supermarket,Gujarat,Ahmedabad,Ahmedabad,858842,29.280064,95.998738,2015-03-30,Closed,Chain
S000100,Merchant-Nigam,Pharmacy,West Bengal,Kolkata,Kolkata,712368,31.946303,85.181764,2018-12-11,Closed,Independent
S000101,Rana Inc,Hypermarket,Maharashtra,Pune,Pune,817549,33.567304,75.07204,2019-06-19,Closed,Chain
S000102,"Prabhu, Chokshi and Kaur",Kirana,Delhi,New Delhi,New Delhi,098593,22.334889,77.425411,2008-08-25,Closed,Independent
S000103,"Shetty, Mittal and Rege",Hypermarket,Delhi,New Delhi,New Delhi,200471,17.869826,93.529279,2009-10-21,Closed,Independent
S000104,Yogi and Sons,Kirana,Tamil Nadu,Chennai,Chennai,758692,14.999325,79.786416,2020-08-13,Active,Chain
S000105,"Chaudhary, Suri and Reddy",Pharmacy,West Bengal,Kolkata,Kolkata,053773,30.995053,70.698547,2018-11-03,Active,Chain
S000106,Pillai PLC,Hypermarket,Tamil Nadu,Chennai,Chennai,064317,27.254841,78.701593,2009-08-14,Closed,Chain
S000107,"Kala, Bail and Bedi",Hypermarket,Delhi,New Delhi,New Delhi,329318,28.382793,75.856576,2013-07-19,Closed,Independent
S000108,"Kalita, Kaul and Narasimhan",Supermarket,Maharashtra,Pune,Pune,904228,17.15089,89.543551,2015-01-11,Active,Independent
S000109,Choudhary Ltd,Pharmacy,Tamil Nadu,Chennai,Chennai,205395,16.018489,85.09802,2007-01-14,Closed,Independent
S000110,Lanka Inc,Hypermarket,Tamil Nadu,Chennai,Chennai,681177,14.597012,73.203805,2018-10-26,Active,Independent
S000111,"Chopra, Seth and Thakur",Kirana,Telangana,Hyderabad,Hyderabad,908470,36.254553,84.04741,2008-07-26,Active,Chain
S000112,Ratti-Sandhu,Kirana,Maharashtra,Pune,Pune,771159,24.647862,81.612511,2011-07-19,Closed,Chain
S000113,Date LLC,Kirana,Karnataka,Bengaluru,Bengaluru Urban,698478,15.321873,92.989966,2021-02-19,Active,Independent
S000114,Contractor Ltd,Pharmacy,Gujarat,Ahmedabad,Ahmedabad,673657,10.148383,86.253926,2020-01-25,Active,Independent
S000115,Chandran-Munshi,Convenience Store,Karnataka,Bengaluru,Bengaluru Urban,545271,35.524644,70.470246,2009-08-08,Active,Independent
S000116,Chander Group,Convenience Store,Gujarat,Ahmedabad,Ahmedabad,528098,25.287679,85.934132,2025-08-11,Closed,Chain
S000117,Das-Roy,Hypermarket,West Bengal,Kolkata,Kolkata,604945,32.944833,96.710907,2010-01-09,Closed,Independent
S000118,"Tripathi, Kala and Dubey",Supermarket,Maharashtra,Pune,Pune,315851,26.139936,75.674738,2015-12-23,Active,Independent
S000119,"Kara, Sanghvi and Bal",Supermarket,Tamil Nadu,Chennai,Chennai,024455,24.007775,72.539446,2006-09-15,Closed,Chain
S000120,Dhar PLC,Hypermarket,West Bengal,Kolkata,Kolkata,120183,8.946556,76.355042,2019-04-20,Closed,Chain
S000121,Setty-Om,Supermarket,Maharashtra,Pune,Pune,545991,34.79342,90.847013,2008-04-15,Active,Chain
S000122,Dugar PLC,Convenience Store,Maharashtra,Pune,Pune,147679,14.519474,72.320693,2021-07-16,Closed,Independent
S000123,Mahajan-Kale,Kirana,Maharashtra,Pune,Pune,561497,12.811761,76.920743,2024-06-05,Closed,Chain
S000124,"Morar, Bath and Kannan",Pharmacy,Maharashtra,Pune,Pune,900343,27.971662,88.292277,2011-03-03,Closed,Chain
S000125,Mann-Narang,Kirana,West Bengal,Kolkata,Kolkata,076226,25.343063,93.793264,2024-08-14,Closed,Chain
S000126,"Karpe, Tella and Pandya",Kirana,Maharashtra,Mumbai,Mumbai,606071,14.638808,87.554653,2017-02-24,Active,Chain
S000127,"Sanghvi, Ravel and Sahni",Supermarket,Maharashtra,Mumbai,Mumbai,160529,21.644524,86.893775,2022-02-25,Closed,Independent
S000128,"Pathak, Chakrabarti and Sarkar",Pharmacy,Gujarat,Ahmedabad,Ahmedabad,369681,36.102602,81.630301,2019-12-19,Closed,Chain
S000129,Nori-Kant,Kirana,Delhi,New Delhi,New Delhi,218188,32.87426,77.564306,2013-02-04,Closed,Chain
S000130,Panchal-Divan,Convenience Store,Gujarat,Ahmedabad,Ahmedabad,124329,9.064217,70.553734,2011-09-13,Closed,Chain
S000131,"Borra, Goel and Tak",Pharmacy,Maharashtra,Pune,Pune,997995,33.082407,91.922889,2017-04-03,Active,Chain
S000132,Sarraf Inc,Kirana,Gujarat,Ahmedabad,Ahmedabad,744905,13.439894,78.491601,2023-10-05,Closed,Chain
S000133,Mukherjee Group,Supermarket,Maharashtra,Mumbai,Mumbai,005411,15.744631,71.799384,2023-10-02,Closed,Chain
S000134,Shere-Barman,Kirana,West Bengal,Kolkata,Kolkata,935978,8.837214,86.270646,2011-08-19,Active,Independent
S000135,Seshadri Inc,Convenience Store,Telangana,Hyderabad,Hyderabad,182037,8.396559,79.83173,2021-06-13,Active,Independent
S000136,"Virk, Dutt and Patla",Kirana,West Bengal,Kolkata,Kolkata,466590,26.783581,72.465163,2017-11-19,Closed,Chain
S000137,Narayan Inc,Pharmacy,Gujarat,Ahmedabad,Ahmedabad,449251,36.427094,75.068196,2026-04-30,Active,Chain
S000138,"Dhaliwal, Palla and Mukherjee",Convenience Store,Tamil Nadu,Chennai,Chennai,291486,22.738986,93.500461,2017-09-04,Active,Chain
S000139,Vyas Inc,Hypermarket,Gujarat,Ahmedabad,Ahmedabad,850542,35.093203,82.724393,2013-10-14,Active,Chain
S000140,Sunder-Handa,Convenience Store,Telangana,Hyderabad,Hyderabad,221418,24.817778,87.138282,2024-11-12,Active,Chain
S000141,"Vyas, Barad and Nayar",Hypermarket,West Bengal,Kolkata,Kolkata,962229,17.640759,90.123308,2012-02-18,Closed,Chain
S000142,"Sarma, Bassi and Roy",Supermarket,Delhi,New Delhi,New Delhi,379473,36.442464,74.925361,2024-09-01,Closed,Independent
S000143,More Group,Kirana,Gujarat,Ahmedabad,Ahmedabad,597746,17.227113,81.716311,2023-08-11,Closed,Chain
S000144,"Sahota, Edwin and Iyengar",Pharmacy,Karnataka,Bengaluru,Bengaluru Urban,407581,35.979909,71.661142,2024-01-20,Closed,Independent
S000145,Mane Inc,Kirana,West Bengal,Kolkata,Kolkata,478261,23.252582,81.250914,2014-01-20,Active,Chain
S000146,Palla-Bala,Kirana,Karnataka,Bengaluru,Bengaluru Urban,068536,21.615227,96.106905,2009-04-11,Closed,Chain
S000147,Kapur-Bala,Hypermarket,Maharashtra,Pune,Pune,152204,32.717899,92.920923,2022-07-29,Closed,Chain
S000148,"Dewan, Singh and Sen",Convenience Store,West Bengal,Kolkata,Kolkata,104328,9.041074,69.984202,2024-06-15,Closed,Independent
S000149,Choudhry-Mani,Pharmacy,Maharashtra,Pune,Pune,410369,36.371794,90.050721,2022-01-19,Active,Chain
S000150,Choudhry Group,Hypermarket,Karnataka,Bengaluru,Bengaluru Urban,893246,34.199298,69.333738,2006-07-21,Active,Chain
S000151,"Pandit, Khosla and Saha",Hypermarket,Delhi,New Delhi,New Delhi,185188,20.489917,75.081726,2023-10-05,Closed,Independent
S000152,"Bahri, Ramakrishnan and Singhal",Supermarket,Karnataka,Bengaluru,Bengaluru Urban,654051,10.290082,93.254348,2018-03-26,Active,Chain
S000153,Chawla PLC,Supermarket,Karnataka,Bengaluru,Bengaluru Urban,205852,21.373347,75.365343,2022-04-23,Closed,Independent
S000154,"Srinivas, Gopal and Deshmukh",Hypermarket,West Bengal,Kolkata,Kolkata,704303,27.650716,72.581293,2007-12-04,Closed,Chain
S000155,Mukherjee-Varma,Pharmacy,Telangana,Hyderabad,Hyderabad,874034,28.019092,81.248239,2018-08-24,Closed,Independent
S000156,Narula LLC,Pharmacy,Gujarat,Ahmedabad,Ahmedabad,566765,11.092945,79.059565,2012-11-08,Closed,Chain
S000157,Tank-Pillai,Kirana,Telangana,Hyderabad,Hyderabad,161692,36.36039,87.088665,2025-01-21,Closed,Independent
S000158,Nagi-Chauhan,Convenience Store,Maharashtra,Mumbai,Mumbai,544796,29.609992,92.152328,2012-03-02,Closed,Independent
S000159,"Sawhney, Panchal and Sekhon",Supermarket,Delhi,New Delhi,New Delhi,596401,26.461918,86.005844,2020-04-27,Active,Independent
S000160,Varghese-Dutta,Hypermarket,Maharashtra,Mumbai,Mumbai,297021,30.869704,68.967571,2014-07-12,Closed,Independent
S000161,"Peri, Pathak and Rajagopal",Hypermarket,Maharashtra,Pune,Pune,927557,17.474855,80.04959,2009-02-11,Active,Independent
S000162,"Devan, Wagle and Peri",Convenience Store,Delhi,New Delhi,New Delhi,543102,22.552048,75.903293,2023-06-24,Active,Chain
S000163,"Ram, Dalal and Lala",Hypermarket,West Bengal,Kolkata,Kolkata,739473,29.650221,77.822742,2010-09-03,Active,Chain
S000164,Borah Group,Supermarket,Maharashtra,Pune,Pune,715518,29.870393,74.542826,2024-12-11,Closed,Chain
S000165,Mital-Dugar,Pharmacy,Maharashtra,Pune,Pune,583132,8.403641,83.560597,2014-07-22,Closed,Chain
S000166,Bal-Patel,Convenience Store,Telangana,Hyderabad,Hyderabad,782911,19.049739,86.517929,2017-01-08,Closed,Independent
S000167,Srinivas-Vora,Pharmacy,Tamil Nadu,Chennai,Chennai,691251,8.725715,93.642811,2021-10-23,Closed,Independent
S000168,Varughese-Padmanabhan,Pharmacy,Maharashtra,Pune,Pune,892268,34.372242,76.763515,2008-05-20,Closed,Independent
S000169,Vasa and Sons,Kirana,Karnataka,Bengaluru,Bengaluru Urban,225358,35.441584,76.826573,2016-03-01,Closed,Independent
S000170,Krishna and Sons,Supermarket,Maharashtra,Pune,Pune,249818,33.73052,71.934257,2012-03-27,Closed,Chain
S000171,"Dube, Garg and Nazareth",Convenience Store,Gujarat,Ahmedabad,Ahmedabad,010943,29.525801,72.481164,2025-12-19,Closed,Independent
S000172,Balasubramanian-Tank,Convenience Store,West Bengal,Kolkata,Kolkata,473647,19.835361,95.594124,2008-12-24,Active,Chain
S000173,"Bhasin, Dugar and Sarraf",Pharmacy,Tamil Nadu,Chennai,Chennai,773592,20.89618,74.847267,2017-02-18,Closed,Independent
S000174,"Nagar, Pai and Rastogi",Convenience Store,Delhi,New Delhi,New Delhi,588153,34.14919,86.699977,2022-05-16,Active,Chain
S000175,Loke Group,Supermarket,Telangana,Hyderabad,Hyderabad,210469,36.077999,95.521313,2020-09-22,Closed,Independent
S000176,Dutta LLC,Convenience Store,Tamil Nadu,Chennai,Chennai,327877,36.161706,69.466777,2016-12-30,Closed,Independent
S000177,Bajaj-Chana,Convenience Store,Karnataka,Bengaluru,Bengaluru Urban,873395,13.950962,92.064717,2008-02-26,Active,Independent
S000178,Manda Group,Hypermarket,Tamil Nadu,Chennai,Chennai,480162,30.456689,90.870669,2015-07-01,Active,Chain
S000179,"Pau, Rau and Pau",Supermarket,Karnataka,Bengaluru,Bengaluru Urban,609835,23.666248,91.156901,2025-04-28,Active,Independent
S000180,Borah-Raju,Kirana,Karnataka,Bengaluru,Bengaluru Urban,849912,18.389026,90.864514,2009-10-15,Closed,Independent
S000181,Prakash-Nori,Hypermarket,Karnataka,Bengaluru,Bengaluru Urban,239868,9.519572,89.509824,2007-11-14,Active,Independent
S000182,Barad and Sons,Pharmacy,West Bengal,Kolkata,Kolkata,787298,30.562494,82.883901,2011-04-04,Active,Chain
S000183,Nagar-Gaba,Convenience Store,Tamil Nadu,Chennai,Chennai,949588,9.257586,90.713583,2024-08-11,Closed,Chain
S000184,Mistry-Soman,Kirana,Maharashtra,Mumbai,Mumbai,551694,36.959016,92.571658,2007-05-29,Closed,Independent
S000185,"Som, Lanka and Kari",Pharmacy,West Bengal,Kolkata,Kolkata,972896,10.131231,70.342924,2011-07-12,Active,Independent
S000186,"Kibe, Balay and Choudhary",Hypermarket,Karnataka,Bengaluru,Bengaluru Urban,075626,26.105207,84.975576,2013-06-08,Closed,Chain
S000187,Thaker-Sinha,Pharmacy,Telangana,Hyderabad,Hyderabad,283857,22.660981,80.47578,2024-05-18,Active,Independent
S000188,Murthy-Ghose,Pharmacy,Gujarat,Ahmedabad,Ahmedabad,858549,33.75464,80.000594,2022-12-22,Closed,Chain
S000189,Koshy LLC,Kirana,Gujarat,Ahmedabad,Ahmedabad,344375,17.063902,77.063184,2022-10-28,Closed,Chain
S000190,Mahal-Mani,Pharmacy,Karnataka,Bengaluru,Bengaluru Urban,986652,9.946866,92.121385,2016-05-19,Active,Chain
S000191,Mani Ltd,Hypermarket,Maharashtra,Pune,Pune,574733,31.541309,84.134751,2024-10-28,Closed,Independent
S000192,Magar-Devan,Hypermarket,Gujarat,Ahmedabad,Ahmedabad,993308,33.334614,95.292766,2014-03-06,Closed,Independent
S000193,"Kaul, Ben and Chaudhry",Convenience Store,Telangana,Hyderabad,Hyderabad,571208,17.061018,71.004416,2011-11-15,Active,Independent
S000194,Soni-Sood,Supermarket,West Bengal,Kolkata,Kolkata,454019,32.570971,78.153306,2014-05-26,Closed,Independent
S000195,"Barad, Gill and Sahni",Convenience Store,Telangana,Hyderabad,Hyderabad,067240,14.558614,80.44426,2006-10-25,Active,Chain
S000196,Chhabra-Nayak,Supermarket,Maharashtra,Mumbai,Mumbai,788728,15.924841,90.109876,2022-06-04,Closed,Chain
S000197,Hans-Chowdhury,Supermarket,Maharashtra,Mumbai,Mumbai,274205,33.226018,84.423312,2016-07-15,Closed,Independent
S000198,"Hans, Gill and Ravi",Kirana,Karnataka,Bengaluru,Bengaluru Urban,851612,10.660973,83.383998,2011-04-14,Closed,Chain
S000199,Naik-Kothari,Hypermarket,West Bengal,Kolkata,Kolkata,463745,12.564869,77.037484,2016-10-09,Closed,Independent
S000200,"Apte, Lal and Parsa",Supermarket,Maharashtra,Mumbai,Mumbai,017426,12.564887,85.917307,2023-08-07,Active,Chain
S000201,"Mukhopadhyay, Dalal and Merchant",Pharmacy,West Bengal,Kolkata,Kolkata,933272,22.084189,80.819281,2021-12-24,Closed,Independent
S000202,"Prakash, Sagar and Sinha",Hypermarket,Maharashtra,Pune,Pune,391878,20.467495,76.214148,2018-10-23,Closed,Chain
S000203,Choudhury Inc,Supermarket,Maharashtra,Mumbai,Mumbai,982258,19.462638,85.380424,2021-07-14,Active,Independent
S000204,Jha Ltd,Supermarket,Telangana,Hyderabad,Hyderabad,187072,30.253136,90.160666,2023-12-18,Closed,Chain
S000205,Shan-Bhardwaj,Kirana,Maharashtra,Pune,Pune,406403,22.424175,80.488995,2026-03-06,Active,Chain
S000206,Bath Group,Convenience Store,Tamil Nadu,Chennai,Chennai,180170,24.202983,87.373397,2016-04-07,Closed,Independent
S000207,Gole-Deshmukh,Kirana,Gujarat,Ahmedabad,Ahmedabad,567661,20.650368,81.332873,2024-11-06,Active,Chain
S000208,Pall Inc,Convenience Store,Gujarat,Ahmedabad,Ahmedabad,868230,19.728264,86.564108,2007-04-10,Closed,Independent
S000209,Sheth-Samra,Kirana,Gujarat,Ahmedabad,Ahmedabad,337524,36.019791,72.984322,2012-11-29,Closed,Chain
S000210,"Chowdhury, Balay and Saini",Pharmacy,Maharashtra,Pune,Pune,331190,32.490046,75.056178,2021-09-09,Closed,Independent
S000211,"Bava, Konda and Basu",Hypermarket,Gujarat,Ahmedabad,Ahmedabad,738302,29.62834,74.42559,2023-08-24,Active,Independent
S000212,Kaur-Nagar,Convenience Store,Maharashtra,Pune,Pune,342836,22.78861,94.271759,2016-09-21,Closed,Chain
S000213,Bhat-Gill,Supermarket,Karnataka,Bengaluru,Bengaluru Urban,870568,10.981331,75.423078,2017-05-06,Active,Independent
S000214,"Saha, Rege and Dixit",Supermarket,Maharashtra,Pune,Pune,628733,35.587472,86.210514,2016-09-24,Closed,Chain
S000215,"Dhawan, Sheth and Bhardwaj",Hypermarket,Delhi,New Delhi,New Delhi,688263,12.377765,69.980301,2015-03-05,Closed,Chain
S000216,Narayanan Ltd,Convenience Store,Telangana,Hyderabad,Hyderabad,751830,9.628991,82.71277,2015-08-20,Closed,Chain
S000217,Baral-Bora,Kirana,West Bengal,Kolkata,Kolkata,983735,9.649811,92.119202,2016-10-24,Active,Independent
S000218,Kakar and Sons,Pharmacy,Gujarat,Ahmedabad,Ahmedabad,739363,24.829553,95.672713,2025-04-14,Active,Chain
S000219,Mandal-Rai,Hypermarket,Tamil Nadu,Chennai,Chennai,854458,25.545169,82.539652,2023-06-02,Active,Chain
S000220,Chaudhari-Singh,Hypermarket,Maharashtra,Pune,Pune,355609,36.489182,70.445545,2014-01-10,Active,Independent
S000221,"Dhingra, Babu and Lal",Pharmacy,Tamil Nadu,Chennai,Chennai,423536,36.738595,83.197988,2025-11-20,Active,Chain
S000222,Tata PLC,Hypermarket,Delhi,New Delhi,New Delhi,477725,19.23508,90.459479,2012-04-04,Active,Chain
S000223,Suresh and Sons,Hypermarket,Maharashtra,Pune,Pune,801006,10.740672,87.673001,2011-03-06,Closed,Chain
S000224,"Kashyap, Bir and Dora",Hypermarket,Karnataka,Bengaluru,Bengaluru Urban,387509,10.363558,87.244751,2022-12-10,Closed,Chain
S000225,"Sura, Babu and Ahuja",Supermarket,Gujarat,Ahmedabad,Ahmedabad,008484,25.256196,95.202064,2007-01-31,Closed,Chain
S000226,"Sani, Gola and Chhabra",Supermarket,Delhi,New Delhi,New Delhi,823398,27.433376,92.03981,2015-02-01,Active,Chain
S000227,Loke-Ranganathan,Kirana,Delhi,New Delhi,New Delhi,567933,18.515332,73.227625,2016-09-14,Active,Chain
S000228,"Buch, Balay and Chander",Supermarket,West Bengal,Kolkata,Kolkata,668700,14.569748,71.989395,2012-04-30,Active,Chain
S000229,Tata Group,Convenience Store,Maharashtra,Pune,Pune,918033,30.355367,92.218475,2025-10-13,Active,Chain
S000230,Madan-Batra,Convenience Store,Karnataka,Bengaluru,Bengaluru Urban,489025,18.924876,72.705169,2007-01-12,Active,Chain
S000231,Dhawan Ltd,Pharmacy,Maharashtra,Mumbai,Mumbai,142939,18.564683,88.867985,2019-09-28,Closed,Chain
S000232,"Zachariah, Narula and Rajagopalan",Supermarket,West Bengal,Kolkata,Kolkata,185016,23.486323,76.974569,2014-05-25,Closed,Independent
S000233,Oak PLC,Convenience Store,Delhi,New Delhi,New Delhi,504773,36.548754,81.388719,2018-08-09,Closed,Chain
S000234,"Prashad, Sankaran and Grewal",Supermarket,Gujarat,Ahmedabad,Ahmedabad,194311,31.689846,91.236518,2015-08-14,Active,Chain
S000235,Rai Ltd,Pharmacy,Maharashtra,Mumbai,Mumbai,655110,33.349391,84.081682,2016-12-27,Active,Independent
S000236,Parsa-Madan,Kirana,Telangana,Hyderabad,Hyderabad,212678,30.130388,75.910948,2025-05-17,Active,Chain
S000237,"Reddy, Chauhan and Bal",Supermarket,Maharashtra,Pune,Pune,581995,31.684394,93.654263,2019-08-10,Active,Chain
S000238,Manne Group,Pharmacy,Maharashtra,Mumbai,Mumbai,183982,22.558206,74.837564,2019-06-15,Active,Chain
S000239,Dewan LLC,Kirana,Tamil Nadu,Chennai,Chennai,472126,17.241861,70.873411,2015-11-21,Closed,Independent
S000240,Mistry-Sule,Kirana,Karnataka,Bengaluru,Bengaluru Urban,543799,16.319503,92.063086,2013-02-25,Active,Chain
S000241,Chhabra-Deshmukh,Convenience Store,West Bengal,Kolkata,Kolkata,065965,8.152285,70.297547,2021-06-23,Closed,Independent
S000242,Sani-Deshpande,Convenience Store,Karnataka,Bengaluru,Bengaluru Urban,593752,35.266553,85.657523,2020-01-19,Closed,Independent
S000243,Manne-Swaminathan,Supermarket,Telangana,Hyderabad,Hyderabad,564651,16.733385,69.384734,2025-09-07,Closed,Chain
S000244,Gole Ltd,Kirana,Maharashtra,Pune,Pune,737416,32.263944,82.495047,2023-06-28,Active,Independent
S000245,Mitter and Sons,Hypermarket,Karnataka,Bengaluru,Bengaluru Urban,266179,20.447928,85.829478,2022-10-21,Active,Chain
S000246,"Rattan, Warrior and Toor",Kirana,Karnataka,Bengaluru,Bengaluru Urban,805891,23.181052,78.457509,2010-03-22,Active,Chain
S000247,Pant and Sons,Kirana,West Bengal,Kolkata,Kolkata,965610,26.434453,96.450143,2009-11-08,Closed,Independent
S000248,Kapadia-Uppal,Kirana,Delhi,New Delhi,New Delhi,756798,17.999272,89.25529,2011-08-18,Active,Chain
S000249,Bakshi-Subramanian,Kirana,Karnataka,Bengaluru,Bengaluru Urban,461125,18.216672,77.81787,2017-02-10,Active,Chain
S000250,Shah-Jhaveri,Supermarket,West Bengal,Kolkata,Kolkata,571775,31.533433,69.829916,2008-10-13,Closed,Independent
S000251,Basu-Contractor,Supermarket,Telangana,Hyderabad,Hyderabad,512382,9.270382,73.784625,2025-04-11,Active,Chain
S000252,Narayanan PLC,Convenience Store,Telangana,Hyderabad,Hyderabad,736226,19.548498,91.646776,2019-12-17,Closed,Chain
S000253,Hora Group,Supermarket,Maharashtra,Mumbai,Mumbai,603341,16.297216,93.002017,2026-02-22,Active,Chain
S000254,Yadav and Sons,Kirana,Telangana,Hyderabad,Hyderabad,537147,31.18093,80.67159,2024-06-15,Closed,Chain
S000255,"Munshi, Rama and Ramanathan",Hypermarket,Gujarat,Ahmedabad,Ahmedabad,557924,36.237984,82.389894,2009-05-20,Closed,Chain
S000256,"Desai, Munshi and Dalal",Kirana,Telangana,Hyderabad,Hyderabad,412528,29.085358,70.288883,2019-09-19,Active,Chain
S000257,Devi-Rajagopal,Kirana,Delhi,New Delhi,New Delhi,278282,10.321998,87.166657,2023-02-28,Closed,Chain
S000258,Dey-Grover,Supermarket,Gujarat,Ahmedabad,Ahmedabad,790507,28.003179,78.194863,2011-02-22,Active,Chain
S000259,Rajagopalan PLC,Hypermarket,Gujarat,Ahmedabad,Ahmedabad,676772,26.54461,90.952857,2009-04-24,Active,Independent
S000260,"Balasubramanian, Kannan and Master",Hypermarket,Gujarat,Ahmedabad,Ahmedabad,438427,22.879495,89.747042,2025-09-29,Active,Independent
S000261,"Tandon, Vaidya and Chowdhury",Convenience Store,Karnataka,Bengaluru,Bengaluru Urban,485807,27.664577,80.707012,2025-02-01,Active,Independent
S000262,Sandal Inc,Hypermarket,Tamil Nadu,Chennai,Chennai,407451,18.502367,95.534546,2021-06-09,Active,Independent
S000263,Khalsa and Sons,Hypermarket,West Bengal,Kolkata,Kolkata,962923,18.788388,90.12945,2013-07-16,Active,Chain
S000264,Panchal PLC,Hypermarket,Gujarat,Ahmedabad,Ahmedabad,982544,26.837261,75.238738,2025-12-26,Active,Independent
S000265,Varkey-Chandran,Pharmacy,Karnataka,Bengaluru,Bengaluru Urban,604223,23.014613,94.492733,2011-06-23,Active,Chain
S000266,"Nagy, Kota and Ramaswamy",Pharmacy,Telangana,Hyderabad,Hyderabad,294667,14.222542,85.744438,2009-01-25,Closed,Independent
S000267,"Chander, Rau and Varma",Supermarket,Maharashtra,Pune,Pune,577590,32.731962,81.109238,2009-09-01,Closed,Independent
S000268,"Shanker, Parmar and Bhatnagar",Hypermarket,Delhi,New Delhi,New Delhi,363745,28.576674,83.949917,2016-02-24,Closed,Chain
S000269,De-Sundaram,Supermarket,Karnataka,Bengaluru,Bengaluru Urban,001701,31.017195,82.753917,2011-11-16,Active,Independent
S000270,Shan-Acharya,Supermarket,Karnataka,Bengaluru,Bengaluru Urban,324241,30.920819,68.762237,2018-10-06,Closed,Chain
S000271,Butala-Prabhu,Convenience Store,Karnataka,Bengaluru,Bengaluru Urban,064361,33.643147,69.906695,2009-09-26,Closed,Chain
S000272,Kala Group,Pharmacy,Gujarat,Ahmedabad,Ahmedabad,293870,31.876843,70.138771,2006-10-10,Closed,Independent
S000273,"Oza, Dara and Sami",Pharmacy,West Bengal,Kolkata,Kolkata,713611,27.723161,77.990929,2010-01-04,Active,Independent
S000274,Pillai-Mistry,Convenience Store,Gujarat,Ahmedabad,Ahmedabad,622189,34.410656,69.606973,2006-10-15,Active,Independent
S000275,"Gala, Sarraf and Panchal",Supermarket,Telangana,Hyderabad,Hyderabad,269731,12.697042,95.107397,2009-12-01,Active,Chain
S000276,Dasgupta PLC,Kirana,Telangana,Hyderabad,Hyderabad,565234,15.267554,86.416656,2009-05-14,Closed,Independent
S000277,Mane Ltd,Convenience Store,Telangana,Hyderabad,Hyderabad,438983,23.470863,82.574621,2019-10-30,Active,Independent
S000278,Bhagat-Khatri,Convenience Store,Karnataka,Bengaluru,Bengaluru Urban,613791,28.89835,85.549028,2024-06-22,Active,Independent
S000279,Patel LLC,Kirana,Maharashtra,Pune,Pune,696582,35.507859,90.359649,2022-07-11,Closed,Independent
S000280,Badal PLC,Convenience Store,Gujarat,Ahmedabad,Ahmedabad,043006,26.530745,82.443104,2023-09-26,Closed,Chain
S000281,Thaker-Sagar,Supermarket,West Bengal,Kolkata,Kolkata,618892,31.335956,87.864734,2015-12-10,Closed,Chain
S000282,Mukherjee Inc,Kirana,Maharashtra,Pune,Pune,285691,12.584333,80.053031,2017-01-19,Closed,Independent
S000283,"Sarkar, Khare and Bhardwaj",Convenience Store,Delhi,New Delhi,New Delhi,161799,12.166392,92.983067,2008-05-15,Closed,Chain
S000284,Gill-Dar,Supermarket,Gujarat,Ahmedabad,Ahmedabad,202758,30.059285,82.934424,2024-02-05,Active,Chain
S000285,"Lad, Ganesan and Prabhu",Pharmacy,Tamil Nadu,Chennai,Chennai,410564,11.553135,81.038284,2024-04-28,Active,Independent
S000286,Lall Ltd,Hypermarket,Maharashtra,Mumbai,Mumbai,778507,35.416162,93.060752,2025-10-15,Closed,Independent
S000287,Pillai and Sons,Hypermarket,Karnataka,Bengaluru,Bengaluru Urban,191380,35.078795,88.912724,2007-12-31,Active,Independent
S000288,Konda Inc,Convenience Store,West Bengal,Kolkata,Kolkata,562208,21.537638,93.493194,2020-10-07,Closed,Independent
S000289,Nagy and Sons,Pharmacy,Maharashtra,Pune,Pune,541951,22.657889,96.033912,2023-08-01,Active,Chain
S000290,"Ben, Gola and Kapoor",Kirana,Maharashtra,Mumbai,Mumbai,617445,16.159334,85.328044,2009-06-09,Closed,Chain
S000291,"Shan, Anand and Pillay",Kirana,Maharashtra,Mumbai,Mumbai,494937,20.496905,93.591216,2019-01-11,Closed,Chain
S000292,"Tak, Hayre and Korpal",Kirana,Delhi,New Delhi,New Delhi,060385,19.616867,84.538168,2006-10-29,Active,Chain
S000293,Agarwal-Puri,Kirana,Telangana,Hyderabad,Hyderabad,138367,19.204116,81.060277,2008-07-15,Closed,Independent
S000294,Mammen Inc,Kirana,Karnataka,Bengaluru,Bengaluru Urban,386571,19.423208,91.05202,2026-04-05,Closed,Chain
S000295,Tiwari and Sons,Supermarket,Karnataka,Bengaluru,Bengaluru Urban,199062,25.471426,79.640225,2014-07-22,Active,Independent
S000296,Lal-Murty,Supermarket,Maharashtra,Mumbai,Mumbai,557431,28.694164,91.31501,2013-05-25,Closed,Independent
S000297,Chopra and Sons,Hypermarket,Karnataka,Bengaluru,Bengaluru Urban,277561,35.009693,77.237371,2024-09-25,Closed,Chain
S000298,Johal-Seth,Convenience Store,Delhi,New Delhi,New Delhi,741124,32.020392,83.437855,2007-11-15,Closed,Chain
S000299,Narang and Sons,Hypermarket,Maharashtra,Mumbai,Mumbai,356804,17.605948,71.178533,2015-05-09,Closed,Chain
S000300,Balasubramanian Group,Convenience Store,Maharashtra,Mumbai,Mumbai,883171,21.763116,96.04505,2011-04-04,Active,Independent
S000301,Arora Inc,Supermarket,West Bengal,Kolkata,Kolkata,236519,23.202738,88.914302,2026-06-11,Closed,Independent
S000302,Borde-Bains,Kirana,Tamil Nadu,Chennai,Chennai,372151,24.604538,88.315106,2007-12-14,Active,Independent
S000303,Bedi-Ganguly,Hypermarket,West Bengal,Kolkata,Kolkata,670662,20.144629,79.975843,2018-07-17,Active,Chain
S000304,Grover LLC,Kirana,West Bengal,Kolkata,Kolkata,720999,28.467482,83.041813,2014-11-11,Closed,Chain
S000305,"Merchant, Tara and Sabharwal",Hypermarket,Gujarat,Ahmedabad,Ahmedabad,014626,35.743879,81.330242,2013-04-14,Closed,Chain
S000306,"Vora, Krish and Bahl",Convenience Store,Telangana,Hyderabad,Hyderabad,578759,22.041223,95.762784,2023-08-05,Closed,Chain
S000307,Rama-Madan,Hypermarket,Tamil Nadu,Chennai,Chennai,059304,30.364054,88.442127,2008-06-29,Closed,Chain
S000308,Wagle-Parmar,Hypermarket,West Bengal,Kolkata,Kolkata,213348,24.25414,95.100076,2008-05-26,Closed,Chain
S000309,Rama LLC,Convenience Store,Maharashtra,Pune,Pune,239559,27.622045,79.011131,2007-06-17,Closed,Chain
S000310,"Pandey, Dhar and Guha",Hypermarket,Karnataka,Bengaluru,Bengaluru Urban,842701,9.219928,95.704098,2008-05-30,Active,Chain
S000311,Kanda Inc,Hypermarket,West Bengal,Kolkata,Kolkata,059325,29.672816,74.205617,2012-07-15,Closed,Chain
S000312,Bhargava-Bains,Kirana,Karnataka,Bengaluru,Bengaluru Urban,921851,25.854634,85.018084,2019-03-18,Active,Independent
S000313,"Randhawa, Chaudhuri and Nayar",Supermarket,Tamil Nadu,Chennai,Chennai,522675,9.522242,79.98574,2012-06-04,Closed,Independent
S000314,"Parikh, Kapoor and Gill",Kirana,Karnataka,Bengaluru,Bengaluru Urban,442209,35.971044,96.359411,2019-10-28,Active,Chain
S000315,"Bali, Gopal and Nadkarni",Pharmacy,West Bengal,Kolkata,Kolkata,917251,26.865622,89.921421,2014-08-06,Closed,Chain
S000316,Nagarajan-Ganesh,Kirana,Telangana,Hyderabad,Hyderabad,570433,34.330172,70.594361,2008-10-21,Active,Independent
S000317,Kunda-Chokshi,Pharmacy,Karnataka,Bengaluru,Bengaluru Urban,067626,33.585104,73.097873,2023-04-11,Active,Chain
S000318,Panchal-Prashad,Supermarket,West Bengal,Kolkata,Kolkata,793271,35.161654,95.90181,2007-08-21,Closed,Independent
S000319,Bahri-Nagar,Hypermarket,Maharashtra,Mumbai,Mumbai,115262,24.470894,71.11172,2009-01-19,Closed,Chain
S000320,"Chander, Nigam and Subramanian",Convenience Store,West Bengal,Kolkata,Kolkata,629620,23.205238,93.788539,2009-12-11,Active,Chain
S000321,Jha-Gupta,Supermarket,Telangana,Hyderabad,Hyderabad,884443,31.455602,77.589839,2009-10-06,Closed,Chain
S000322,Ramaswamy PLC,Kirana,Karnataka,Bengaluru,Bengaluru Urban,205061,29.361919,90.932262,2016-07-09,Active,Independent
S000323,"Srinivasan, Iyengar and Chatterjee",Pharmacy,Gujarat,Ahmedabad,Ahmedabad,324171,22.943139,70.515395,2016-12-28,Active,Independent
S000324,Sinha-Suresh,Pharmacy,Karnataka,Bengaluru,Bengaluru Urban,186256,17.384448,75.193365,2019-01-25,Closed,Chain
S000325,Sehgal Inc,Pharmacy,Tamil Nadu,Chennai,Chennai,774349,29.858943,95.66701,2008-08-06,Closed,Independent
S000326,Chatterjee Inc,Hypermarket,Telangana,Hyderabad,Hyderabad,869380,28.090289,69.801606,2019-09-02,Active,Chain
S000327,"Sahota, Wason and Soman",Supermarket,Telangana,Hyderabad,Hyderabad,741608,19.757082,82.573094,2025-12-07,Closed,Independent
S000328,"Din, Dara and Sen",Hypermarket,Telangana,Hyderabad,Hyderabad,233206,25.824138,74.354729,2009-03-01,Active,Chain
S000329,"Saran, Jaggi and Divan",Pharmacy,Karnataka,Bengaluru,Bengaluru Urban,511686,29.68431,85.566429,2025-04-13,Closed,Chain
S000330,Majumdar-Venkatesh,Supermarket,Tamil Nadu,Chennai,Chennai,099861,27.729916,85.27862,2020-08-07,Active,Chain
S000331,Divan PLC,Kirana,Delhi,New Delhi,New Delhi,191485,34.600096,71.254055,2020-06-24,Active,Independent
S000332,Rajagopal-Sunder,Hypermarket,Karnataka,Bengaluru,Bengaluru Urban,024629,32.780094,80.813376,2020-03-02,Active,Chain
S000333,Randhawa LLC,Convenience Store,Maharashtra,Pune,Pune,074505,20.918998,69.613438,2016-10-23,Active,Chain
S000334,Mand-Swamy,Convenience Store,West Bengal,Kolkata,Kolkata,324754,9.674367,81.408971,2020-09-05,Closed,Independent
S000335,"Chakraborty, Guha and Sathe",Hypermarket,Gujarat,Ahmedabad,Ahmedabad,678508,31.677144,89.62833,2011-11-28,Active,Independent
S000336,Mukhopadhyay Ltd,Hypermarket,Gujarat,Ahmedabad,Ahmedabad,289023,28.311161,83.693742,2013-04-30,Active,Independent
S000337,Krish Inc,Kirana,West Bengal,Kolkata,Kolkata,053457,16.32563,73.219458,2023-09-08,Active,Chain
S000338,Dasgupta-Balasubramanian,Pharmacy,Delhi,New Delhi,New Delhi,579727,21.007577,94.596337,2026-06-20,Closed,Chain
S000339,"Palla, Padmanabhan and Gade",Convenience Store,Maharashtra,Pune,Pune,140602,11.856704,92.948311,2025-12-20,Active,Independent
S000340,Kant Ltd,Convenience Store,Gujarat,Ahmedabad,Ahmedabad,346800,11.693066,96.383007,2022-08-18,Active,Independent
S000341,Ghose PLC,Pharmacy,Telangana,Hyderabad,Hyderabad,349446,27.531496,83.788915,2019-04-23,Closed,Independent
S000342,Sharaf-Krishnan,Pharmacy,Tamil Nadu,Chennai,Chennai,748969,18.038632,75.993842,2009-12-24,Active,Independent
S000343,Vaidya Ltd,Convenience Store,Gujarat,Ahmedabad,Ahmedabad,899441,30.215551,93.628942,2022-11-21,Active,Independent
S000344,Nayar LLC,Kirana,Tamil Nadu,Chennai,Chennai,444328,10.926005,68.973712,2014-09-04,Active,Independent
S000345,Raval Ltd,Pharmacy,Maharashtra,Mumbai,Mumbai,207446,20.729922,83.653034,2020-04-07,Active,Independent
S000346,Banik-Gupta,Supermarket,Telangana,Hyderabad,Hyderabad,387584,31.657801,89.214007,2012-04-13,Closed,Chain
S000347,"Golla, Memon and Chatterjee",Hypermarket,Tamil Nadu,Chennai,Chennai,248251,33.411491,96.585171,2014-01-23,Active,Chain
S000348,Kapoor-Mohanty,Hypermarket,Telangana,Hyderabad,Hyderabad,554947,9.767771,95.507087,2010-07-04,Active,Chain
S000349,Bera-Bobal,Kirana,West Bengal,Kolkata,Kolkata,381684,36.196417,95.306006,2020-07-21,Closed,Chain
S000350,Dora and Sons,Pharmacy,Gujarat,Ahmedabad,Ahmedabad,569725,12.327311,78.917345,2012-08-20,Closed,Independent
S000351,Sura LLC,Hypermarket,Tamil Nadu,Chennai,Chennai,500743,32.868696,72.186201,2012-03-27,Closed,Independent
S000352,"Dutt, Suri and Chakrabarti",Pharmacy,Gujarat,Ahmedabad,Ahmedabad,966667,24.161316,71.88869,2019-07-17,Active,Chain
S000353,Barad PLC,Hypermarket,Tamil Nadu,Chennai,Chennai,505830,26.75447,94.744557,2006-08-22,Closed,Independent
S000354,"Kothari, Kara and Padmanabhan",Kirana,Tamil Nadu,Chennai,Chennai,216894,15.785386,87.536486,2012-03-07,Active,Independent
S000355,Bath LLC,Convenience Store,Tamil Nadu,Chennai,Chennai,789856,29.004852,84.206664,2011-01-19,Closed,Independent
S000356,Suri-Parmer,Hypermarket,Delhi,New Delhi,New Delhi,260332,35.753573,68.444677,2013-09-07,Active,Independent
S000357,"Bains, Thaman and Gara",Supermarket,West Bengal,Kolkata,Kolkata,506489,28.173162,88.409289,2008-02-25,Closed,Independent
S000358,"Bava, Chokshi and Bahri",Hypermarket,Delhi,New Delhi,New Delhi,167618,19.039191,83.475854,2015-02-05,Closed,Chain
S000359,Dua-Jha,Hypermarket,Telangana,Hyderabad,Hyderabad,461849,22.87168,82.421041,2011-03-02,Active,Chain
S000360,Cheema-Vaidya,Supermarket,Delhi,New Delhi,New Delhi,411739,18.750443,80.003975,2013-04-18,Active,Independent
S000361,Virk-Jaggi,Hypermarket,Maharashtra,Mumbai,Mumbai,642087,24.046035,84.936925,2013-07-26,Closed,Chain
S000362,"Srivastava, Narayanan and Keer",Supermarket,Karnataka,Bengaluru,Bengaluru Urban,011972,17.566093,79.015353,2009-07-25,Active,Chain
S000363,"Borde, Chaudhuri and Kunda",Hypermarket,Delhi,New Delhi,New Delhi,744701,30.137458,82.170012,2012-06-11,Closed,Chain
S000364,Mannan LLC,Hypermarket,Karnataka,Bengaluru,Bengaluru Urban,611002,12.908706,88.889092,2012-04-20,Closed,Independent
S000365,Parmar-Sarma,Convenience Store,Maharashtra,Mumbai,Mumbai,155216,8.980889,92.554224,2020-02-13,Active,Independent
S000366,Magar-Rajan,Supermarket,Gujarat,Ahmedabad,Ahmedabad,621202,32.433797,74.711568,2010-01-10,Active,Independent
S000367,Subramanian-Sarma,Convenience Store,Tamil Nadu,Chennai,Chennai,965902,21.22428,69.753053,2022-12-08,Closed,Chain
S000368,Chowdhury-Sabharwal,Kirana,Maharashtra,Mumbai,Mumbai,014508,23.434162,79.928817,2026-02-13,Active,Chain
S000369,"Kapur, Nigam and Venkataraman",Kirana,Telangana,Hyderabad,Hyderabad,637562,22.564265,88.237913,2025-06-30,Closed,Independent
S000370,"Bhagat, Apte and Dugar",Kirana,Maharashtra,Pune,Pune,721753,23.207177,74.988096,2017-10-04,Closed,Chain
S000371,Bedi-Tripathi,Pharmacy,Telangana,Hyderabad,Hyderabad,866317,10.291558,95.819636,2021-08-12,Closed,Independent
S000372,"Sem, Chakrabarti and Tara",Hypermarket,Tamil Nadu,Chennai,Chennai,517016,27.837207,92.588146,2020-07-12,Active,Independent
S000373,Acharya Inc,Pharmacy,Gujarat,Ahmedabad,Ahmedabad,883755,18.937917,81.804148,2008-05-06,Active,Independent
S000374,Sha LLC,Pharmacy,Maharashtra,Pune,Pune,571130,32.514564,86.70231,2018-02-11,Closed,Independent
S000375,Manne-Vig,Supermarket,Maharashtra,Mumbai,Mumbai,102726,14.131095,93.17539,2010-02-20,Closed,Chain
S000376,Hayre-Guha,Kirana,Maharashtra,Mumbai,Mumbai,637351,27.848434,76.130817,2020-08-07,Active,Independent
S000377,Dasgupta Group,Kirana,Delhi,New Delhi,New Delhi,982708,35.882607,85.024047,2008-02-25,Closed,Independent
S000378,"Sant, Subramanian and Trivedi",Supermarket,Telangana,Hyderabad,Hyderabad,922169,24.354788,84.434182,2017-06-13,Closed,Chain
S000379,"Rajagopalan, Sahota and Kothari",Supermarket,Gujarat,Ahmedabad,Ahmedabad,654722,30.924444,87.990006,2020-07-17,Active,Chain
S000380,"Vala, Mistry and Murthy",Kirana,Maharashtra,Mumbai,Mumbai,339452,20.675559,92.321565,2012-07-19,Closed,Chain
S000381,"Naidu, D’Alia and Pandey",Kirana,Delhi,New Delhi,New Delhi,996846,26.389565,90.722896,2006-12-07,Closed,Chain
S000382,"Chhabra, Bakshi and Raj",Hypermarket,Tamil Nadu,Chennai,Chennai,003424,24.038094,78.887383,2015-01-09,Active,Chain
S000383,Bhatia Ltd,Convenience Store,Maharashtra,Pune,Pune,380571,16.566005,75.147044,2025-08-13,Active,Independent
S000384,Ramachandran and Sons,Supermarket,Telangana,Hyderabad,Hyderabad,066658,19.02,90.732818,2008-04-30,Active,Chain
S000385,Krishnamurthy and Sons,Hypermarket,Delhi,New Delhi,New Delhi,359893,11.089977,68.150661,2013-01-30,Closed,Chain
S000386,Sen-Goel,Hypermarket,Delhi,New Delhi,New Delhi,228160,10.964711,70.53162,2021-01-29,Closed,Chain
S000387,Lalla-De,Kirana,Gujarat,Ahmedabad,Ahmedabad,940572,8.761595,78.263514,2007-11-10,Active,Chain
S000388,Naidu PLC,Kirana,Gujarat,Ahmedabad,Ahmedabad,947985,16.463573,79.246187,2008-12-23,Active,Independent
S000389,"Nadkarni, Vora and Kannan",Pharmacy,Karnataka,Bengaluru,Bengaluru Urban,818268,12.915551,75.79865,2024-10-09,Closed,Chain
S000390,Chanda-Palla,Kirana,Karnataka,Bengaluru,Bengaluru Urban,355543,12.849015,76.002894,2024-07-19,Closed,Chain
S000391,Andra-Contractor,Hypermarket,Maharashtra,Pune,Pune,739930,15.299292,75.151112,2017-06-02,Closed,Independent
S000392,Comar-Raju,Kirana,West Bengal,Kolkata,Kolkata,840858,11.929196,68.196254,2023-10-23,Closed,Chain
S000393,Sur-Bassi,Hypermarket,Gujarat,Ahmedabad,Ahmedabad,358112,20.766465,80.48787,2024-10-20,Active,Chain
S000394,"Amble, Bhatti and Kade",Convenience Store,Delhi,New Delhi,New Delhi,613861,35.471089,73.824693,2011-09-24,Closed,Independent
S000395,Sharaf Ltd,Hypermarket,Gujarat,Ahmedabad,Ahmedabad,011024,16.451996,88.153775,2025-06-27,Closed,Independent
S000396,Kari LLC,Pharmacy,Delhi,New Delhi,New Delhi,676650,16.128704,90.790129,2019-10-02,Closed,Independent
S000397,"Dani, Warrior and Ahuja",Convenience Store,Tamil Nadu,Chennai,Chennai,901581,36.920683,73.217889,2016-05-11,Active,Chain
S000398,"Mitra, Chadha and Manda",Pharmacy,Tamil Nadu,Chennai,Chennai,660728,31.13288,92.107172,2013-12-24,Active,Chain
S000399,Raman PLC,Supermarket,West Bengal,Kolkata,Kolkata,245088,26.366745,75.018614,2011-04-23,Active,Chain
S000400,Barman Inc,Kirana,Gujarat,Ahmedabad,Ahmedabad,881435,21.022935,85.340082,2013-09-14,Closed,Chain
S000401,Vala-Dhar,Hypermarket,Maharashtra,Mumbai,Mumbai,239431,28.347394,91.556612,2012-09-01,Active,Independent
S000402,"Bhagat, Shenoy and Bora",Hypermarket,Tamil Nadu,Chennai,Chennai,141397,12.823816,85.767659,2017-10-03,Closed,Chain
S000403,Dave-Keer,Kirana,Gujarat,Ahmedabad,Ahmedabad,491357,8.305885,75.503413,2021-10-31,Active,Chain
S000404,Mohan-Dua,Pharmacy,Delhi,New Delhi,New Delhi,562053,21.428833,87.707109,2014-01-14,Active,Chain
S000405,"Sarin, Malhotra and Parsa",Pharmacy,Maharashtra,Mumbai,Mumbai,577754,11.031931,80.063287,2023-01-25,Active,Independent
S000406,"Chopra, Gill and Bumb",Hypermarket,Karnataka,Bengaluru,Bengaluru Urban,283411,17.04482,81.204646,2007-02-18,Active,Chain
S000407,"Balasubramanian, Ravel and Kala",Pharmacy,Delhi,New Delhi,New Delhi,848872,10.831068,88.937824,2018-12-12,Closed,Chain
S000408,Kapoor-Mannan,Hypermarket,Maharashtra,Pune,Pune,788165,9.295809,88.612591,2023-08-02,Active,Chain
S000409,Khare PLC,Supermarket,Maharashtra,Pune,Pune,827229,34.967751,89.474195,2025-10-01,Active,Independent
S000410,"Dhingra, Sule and Parmer",Convenience Store,Delhi,New Delhi,New Delhi,373145,20.364712,81.399571,2014-06-18,Closed,Independent
S000411,Jhaveri PLC,Pharmacy,Karnataka,Bengaluru,Bengaluru Urban,677005,19.471889,89.384263,2010-01-04,Active,Chain
S000412,"Verma, Mahal and Lall",Pharmacy,Gujarat,Ahmedabad,Ahmedabad,665918,8.129051,74.229087,2015-01-22,Closed,Independent
S000413,Kapoor-Varty,Convenience Store,Maharashtra,Pune,Pune,557790,13.421835,77.453562,2023-07-29,Closed,Independent
S000414,Sarraf and Sons,Pharmacy,Telangana,Hyderabad,Hyderabad,184322,23.303736,86.534149,2011-11-08,Closed,Chain
S000415,Dani-Karpe,Hypermarket,Maharashtra,Pune,Pune,517773,18.207563,81.277957,2011-12-26,Active,Chain
S000416,"Roy, Bains and Kohli",Supermarket,Maharashtra,Pune,Pune,299228,17.082387,74.918609,2007-11-01,Active,Independent
S000417,"Din, Bhalla and Ganesan",Supermarket,Delhi,New Delhi,New Delhi,286990,22.813921,80.128934,2016-02-22,Active,Chain
S000418,Kalita Group,Supermarket,Gujarat,Ahmedabad,Ahmedabad,723692,22.113436,83.583999,2026-04-28,Active,Independent
S000419,Vaidya LLC,Hypermarket,West Bengal,Kolkata,Kolkata,579913,12.0686,77.12282,2019-05-15,Closed,Independent
S000420,Deo-Chopra,Kirana,Delhi,New Delhi,New Delhi,388629,22.053659,73.658726,2009-10-10,Closed,Chain
S000421,Soni PLC,Pharmacy,Gujarat,Ahmedabad,Ahmedabad,881172,20.053283,92.356862,2024-11-06,Closed,Independent
S000422,Sankar PLC,Convenience Store,Maharashtra,Pune,Pune,508637,8.89496,90.070642,2019-06-21,Closed,Independent
S000423,Chaudhari-Sandal,Supermarket,Telangana,Hyderabad,Hyderabad,473149,23.59065,72.87806,2024-12-31,Closed,Chain
S000424,Kurian-Gulati,Convenience Store,Maharashtra,Pune,Pune,098180,11.311993,90.478278,2019-04-05,Closed,Independent
S000425,"Jha, Mutti and Rege",Convenience Store,West Bengal,Kolkata,Kolkata,126944,14.337716,80.329486,2024-09-27,Active,Chain
S000426,Pau-Majumdar,Pharmacy,Maharashtra,Mumbai,Mumbai,368872,15.621642,93.003789,2019-02-04,Active,Chain
S000427,"Sule, Kulkarni and Mohanty",Supermarket,Maharashtra,Pune,Pune,621372,14.086467,89.390776,2009-11-29,Closed,Chain
S000428,Trivedi Group,Convenience Store,Karnataka,Bengaluru,Bengaluru Urban,890260,12.037814,73.99197,2009-08-07,Active,Independent
S000429,Sinha PLC,Convenience Store,Delhi,New Delhi,New Delhi,114351,16.151466,83.624288,2007-10-14,Closed,Chain
S000430,"Rajagopalan, Rattan and Verma",Convenience Store,Telangana,Hyderabad,Hyderabad,902770,15.752949,92.882489,2013-05-12,Active,Independent
S000431,"Vasa, Mangal and Hayer",Kirana,Gujarat,Ahmedabad,Ahmedabad,988392,36.782101,93.14438,2007-09-23,Active,Independent
S000432,Khare-Acharya,Supermarket,Tamil Nadu,Chennai,Chennai,146566,28.630451,92.025972,2026-06-10,Closed,Chain
S000433,Vasa Inc,Convenience Store,Karnataka,Bengaluru,Bengaluru Urban,184895,26.339657,86.206572,2018-04-28,Closed,Chain
S000434,Kara-Hayer,Kirana,Maharashtra,Pune,Pune,690426,19.682672,89.744269,2023-09-22,Closed,Chain
S000435,Bora PLC,Hypermarket,West Bengal,Kolkata,Kolkata,518489,24.876711,93.198325,2015-01-04,Active,Chain
S000436,"Savant, Purohit and Sule",Kirana,Delhi,New Delhi,New Delhi,577907,31.07466,79.53376,2010-06-15,Closed,Independent
S000437,Bir-Raja,Hypermarket,West Bengal,Kolkata,Kolkata,356588,17.363089,76.224199,2006-10-30,Active,Chain
S000438,"Lall, Kothari and Mani",Kirana,Delhi,New Delhi,New Delhi,651827,9.332345,86.159206,2017-03-06,Closed,Independent
S000439,Kamdar-Luthra,Supermarket,Maharashtra,Pune,Pune,373334,20.797293,68.019602,2013-07-14,Closed,Independent
S000440,Jain and Sons,Hypermarket,Karnataka,Bengaluru,Bengaluru Urban,211179,12.610346,95.049041,2006-09-22,Closed,Independent
S000441,"Basak, Subramaniam and Prabhu",Hypermarket,Delhi,New Delhi,New Delhi,794728,10.390195,87.270756,2016-01-14,Active,Independent
S000442,Kapadia-Dave,Hypermarket,Gujarat,Ahmedabad,Ahmedabad,867808,29.053663,89.901733,2018-04-25,Closed,Independent
S000443,Ghosh-Shankar,Kirana,Maharashtra,Pune,Pune,875003,14.189214,70.260223,2019-05-30,Active,Chain
S000444,"Chaudhuri, Nanda and Pathak",Kirana,Maharashtra,Mumbai,Mumbai,284347,28.172316,91.696162,2018-03-04,Closed,Independent
S000445,Gour-Tara,Kirana,West Bengal,Kolkata,Kolkata,365564,14.639459,70.590601,2021-11-01,Active,Independent
S000446,Deep PLC,Hypermarket,Delhi,New Delhi,New Delhi,143866,33.548681,71.97675,2013-03-03,Active,Independent
S000447,Doctor Group,Convenience Store,Maharashtra,Pune,Pune,267288,24.335445,85.699258,2017-03-29,Active,Chain
S000448,Mital-Krishna,Supermarket,Delhi,New Delhi,New Delhi,612034,26.214321,72.38985,2022-09-18,Closed,Chain
S000449,"Char, Sengupta and Natt",Kirana,Tamil Nadu,Chennai,Chennai,558845,34.001195,72.060381,2007-03-05,Active,Chain
S000450,Dara-Panchal,Pharmacy,Delhi,New Delhi,New Delhi,998245,17.120606,72.055075,2017-07-24,Closed,Independent
S000451,"Uppal, Sura and Sekhon",Convenience Store,Tamil Nadu,Chennai,Chennai,694722,25.428973,88.91421,2017-12-23,Closed,Independent
S000452,Ravel-Bora,Supermarket,Telangana,Hyderabad,Hyderabad,253554,23.014725,82.776154,2015-08-08,Closed,Chain
S000453,"Rana, Madan and Saxena",Supermarket,Maharashtra,Mumbai,Mumbai,987622,22.351744,71.269566,2007-04-15,Closed,Independent
S000454,Keer Ltd,Hypermarket,Maharashtra,Mumbai,Mumbai,132611,35.083808,71.827504,2008-09-01,Closed,Chain
S000455,Bhagat-Bal,Pharmacy,Karnataka,Bengaluru,Bengaluru Urban,811492,35.679137,90.340644,2009-05-14,Active,Independent
S000456,"Ramakrishnan, More and Karnik",Hypermarket,Maharashtra,Mumbai,Mumbai,472282,14.256545,94.754799,2007-06-22,Closed,Chain
S000457,Parikh LLC,Pharmacy,Gujarat,Ahmedabad,Ahmedabad,784872,28.352509,70.390407,2024-11-06,Active,Chain
S000458,Shan Ltd,Hypermarket,Maharashtra,Pune,Pune,884578,10.291625,94.706821,2014-03-24,Active,Chain
S000459,Sathe LLC,Convenience Store,Gujarat,Ahmedabad,Ahmedabad,642400,26.394533,92.201268,2024-04-21,Active,Chain
S000460,Padmanabhan LLC,Supermarket,Gujarat,Ahmedabad,Ahmedabad,807740,9.679272,70.500171,2021-02-22,Closed,Independent
S000461,Kashyap-Amble,Convenience Store,West Bengal,Kolkata,Kolkata,368663,25.65614,76.969412,2012-01-21,Active,Independent
S000462,"Ramakrishnan, Radhakrishnan and Kannan",Supermarket,Maharashtra,Mumbai,Mumbai,163894,28.343489,72.751146,2016-03-08,Closed,Chain
S000463,"Wali, Luthra and Sachar",Hypermarket,Karnataka,Bengaluru,Bengaluru Urban,122417,11.680988,90.652595,2021-11-26,Closed,Independent
S000464,Swamy-Guha,Hypermarket,Maharashtra,Mumbai,Mumbai,020802,31.406128,75.887437,2009-12-24,Active,Chain
S000465,Luthra-Dass,Pharmacy,Maharashtra,Pune,Pune,031207,21.200736,78.443593,2013-11-21,Closed,Independent
S000466,Salvi-Muni,Supermarket,Delhi,New Delhi,New Delhi,570512,15.398366,70.984243,2008-05-28,Active,Independent
S000467,Ramanathan-Bora,Kirana,Maharashtra,Mumbai,Mumbai,234601,32.901981,68.356354,2014-12-20,Active,Chain
S000468,Savant-Kota,Pharmacy,Delhi,New Delhi,New Delhi,371837,34.68657,73.189867,2019-09-27,Active,Chain
S000469,"Muni, Naidu and Dutt",Hypermarket,Tamil Nadu,Chennai,Chennai,881474,15.199632,94.559788,2013-04-05,Closed,Chain
S000470,Ben-Kamdar,Convenience Store,Maharashtra,Pune,Pune,365024,18.811437,82.559187,2026-05-24,Active,Independent
S000471,Randhawa and Sons,Convenience Store,Tamil Nadu,Chennai,Chennai,097925,36.461002,95.668303,2009-07-18,Active,Chain
S000472,Dugar Group,Hypermarket,Telangana,Hyderabad,Hyderabad,950052,17.491727,84.03965,2024-09-30,Active,Chain
S000473,Dass Group,Hypermarket,Tamil Nadu,Chennai,Chennai,585730,24.350395,76.81337,2019-05-09,Active,Chain
S000474,Desai-Krishna,Convenience Store,Delhi,New Delhi,New Delhi,778487,36.183875,96.935826,2012-12-15,Active,Independent
S000475,"Grover, Pall and Naik",Kirana,Karnataka,Bengaluru,Bengaluru Urban,498218,35.039528,68.693397,2011-10-10,Closed,Independent
S000476,Merchant-Lall,Kirana,Delhi,New Delhi,New Delhi,708620,30.008945,78.91197,2018-11-20,Closed,Independent
S000477,"Khare, Nagi and Bhatnagar",Convenience Store,Tamil Nadu,Chennai,Chennai,387829,36.510357,80.174659,2016-02-18,Active,Independent
S000478,Rout-Nagy,Kirana,Telangana,Hyderabad,Hyderabad,181022,9.273108,74.712705,2007-07-25,Closed,Chain
S000479,Chhabra Group,Kirana,West Bengal,Kolkata,Kolkata,109678,24.842348,82.657405,2015-03-17,Closed,Independent
S000480,Peri and Sons,Pharmacy,Maharashtra,Mumbai,Mumbai,037170,27.210874,71.79054,2018-10-12,Closed,Chain
S000481,"Sagar, Pillay and Bhardwaj",Pharmacy,Delhi,New Delhi,New Delhi,801413,28.321043,89.325233,2024-03-04,Closed,Chain
S000482,Chaudhuri Ltd,Supermarket,Telangana,Hyderabad,Hyderabad,863383,10.165936,73.878666,2025-11-23,Active,Independent
S000483,"Gola, Sagar and Cherian",Supermarket,Maharashtra,Pune,Pune,761228,21.037436,77.106965,2020-02-29,Active,Chain
S000484,"Nazareth, Dugar and Walla",Pharmacy,Tamil Nadu,Chennai,Chennai,558556,16.940924,75.68523,2021-02-24,Active,Independent
S000485,"Naik, Khosla and Kala",Hypermarket,Karnataka,Bengaluru,Bengaluru Urban,845776,31.965214,88.209462,2006-07-04,Active,Independent
S000486,"Banerjee, Mane and Babu",Supermarket,Delhi,New Delhi,New Delhi,404335,10.645174,75.198345,2007-03-28,Closed,Chain
S000487,"Majumdar, Vaidya and Dubey",Hypermarket,Maharashtra,Mumbai,Mumbai,075224,15.544837,96.729622,2018-12-27,Active,Chain
S000488,"Krish, Kaul and Kunda",Convenience Store,West Bengal,Kolkata,Kolkata,196931,29.694275,75.245726,2017-07-19,Closed,Independent
S000489,Ghose-Sura,Kirana,Karnataka,Bengaluru,Bengaluru Urban,940961,8.346751,92.080798,2008-05-26,Active,Independent
S000490,Pall-Saraf,Pharmacy,Tamil Nadu,Chennai,Chennai,139060,18.794953,86.278629,2016-11-13,Active,Chain
S000491,"Barman, Nagar and Zacharia",Kirana,Maharashtra,Pune,Pune,583206,36.917681,73.73476,2021-08-29,Closed,Independent
S000492,"Thaman, Chana and Kapadia",Hypermarket,Maharashtra,Pune,Pune,462251,11.553302,95.326139,2022-09-09,Active,Independent
S000493,"Bawa, Rastogi and Lala",Pharmacy,Gujarat,Ahmedabad,Ahmedabad,686227,22.387665,79.099154,2025-07-12,Closed,Independent
S000494,Sura Group,Supermarket,Delhi,New Delhi,New Delhi,898331,34.340822,75.974471,2015-07-23,Closed,Independent
S000495,Naik-Chakraborty,Convenience Store,Maharashtra,Mumbai,Mumbai,665535,25.95612,75.127759,2018-03-22,Closed,Chain
S000496,"Bajwa, Mody and Gara",Convenience Store,Gujarat,Ahmedabad,Ahmedabad,979270,21.891897,70.543925,2014-06-11,Closed,Independent
S000497,Prakash and Sons,Supermarket,Gujarat,Ahmedabad,Ahmedabad,103924,26.636923,91.11874,2006-12-19,Active,Independent
S000498,Choudhry-Mody,Hypermarket,Gujarat,Ahmedabad,Ahmedabad,705383,21.910849,90.661618,2013-06-07,Closed,Chain
S000499,"Virk, Kuruvilla and Subramanian",Hypermarket,Gujarat,Ahmedabad,Ahmedabad,069804,13.21466,77.247449,2012-04-17,Active,Independent
S000500,Mander and Sons,Kirana,Telangana,Hyderabad,Hyderabad,070164,31.450963,81.678847,2018-10-03,Closed,Independent
S000501,Bahl LLC,Kirana,Karnataka,Bengaluru,Bengaluru Urban,368157,15.187855,74.993431,2024-08-02,Active,Independent
S000502,Grewal and Sons,Hypermarket,Gujarat,Ahmedabad,Ahmedabad,800384,35.120975,96.754716,2017-11-06,Active,Independent
S000503,Ramaswamy-Dugar,Convenience Store,Tamil Nadu,Chennai,Chennai,555438,17.222127,89.405048,2015-11-20,Closed,Independent
S000504,Kurian Group,Convenience Store,Delhi,New Delhi,New Delhi,843256,24.344588,84.330158,2011-03-03,Active,Chain
S000505,Raja PLC,Supermarket,Telangana,Hyderabad,Hyderabad,639264,22.222656,70.617464,2017-09-14,Active,Independent
S000506,Deep-Jhaveri,Convenience Store,Maharashtra,Mumbai,Mumbai,983248,21.861681,77.620286,2011-02-06,Active,Independent
S000507,Dhillon-Dugar,Supermarket,Delhi,New Delhi,New Delhi,188125,34.644643,92.484239,2011-06-14,Closed,Independent
S000508,"Balan, Nagar and Sachdev",Supermarket,Maharashtra,Mumbai,Mumbai,474231,25.011666,94.5995,2010-12-22,Active,Chain
S000509,Bal PLC,Hypermarket,Maharashtra,Pune,Pune,999393,28.431602,87.202047,2014-05-10,Active,Chain
S000510,"Bal, Parmer and Buch",Hypermarket,Telangana,Hyderabad,Hyderabad,289752,11.957098,72.567613,2019-09-07,Closed,Chain
S000511,Som-Devan,Supermarket,Delhi,New Delhi,New Delhi,330604,28.508305,84.297342,2020-07-21,Closed,Independent
S000512,Jain and Sons,Pharmacy,Karnataka,Bengaluru,Bengaluru Urban,279757,16.897874,87.966455,2014-11-23,Active,Independent
S000513,Ravel-Barman,Convenience Store,Maharashtra,Mumbai,Mumbai,569998,19.356441,96.834211,2024-05-15,Active,Independent
S000514,"Barad, Verma and Chopra",Convenience Store,Delhi,New Delhi,New Delhi,703886,14.405962,84.400957,2007-11-01,Closed,Independent
S000515,"Ram, Varty and Bawa",Kirana,Delhi,New Delhi,New Delhi,476447,14.901882,96.48901,2012-03-01,Active,Independent
S000516,Menon-Bhagat,Pharmacy,Delhi,New Delhi,New Delhi,771812,8.330473,74.080844,2026-06-02,Active,Chain
S000517,"Deshmukh, Ramaswamy and Sachdev",Kirana,Telangana,Hyderabad,Hyderabad,702793,28.891994,69.396276,2021-12-20,Closed,Chain
S000518,Krishna LLC,Pharmacy,Karnataka,Bengaluru,Bengaluru Urban,111751,22.299378,78.982665,2024-04-27,Closed,Independent
S000519,"Rajagopalan, Vaidya and Dutta",Convenience Store,West Bengal,Kolkata,Kolkata,860259,26.878117,87.927652,2011-08-10,Active,Chain
S000520,Dhillon and Sons,Kirana,Maharashtra,Pune,Pune,644742,16.55235,77.24279,2010-07-01,Active,Independent
S000521,Jain Inc,Supermarket,Delhi,New Delhi,New Delhi,077780,33.750007,72.66623,2023-04-16,Active,Independent
S000522,Kalla PLC,Convenience Store,Delhi,New Delhi,New Delhi,767199,36.573007,93.903559,2006-09-21,Active,Chain
S000523,Mall PLC,Convenience Store,Karnataka,Bengaluru,Bengaluru Urban,022050,33.802845,72.55601,2011-06-12,Active,Chain
S000524,Misra LLC,Supermarket,Tamil Nadu,Chennai,Chennai,016224,19.869116,84.069261,2025-12-21,Closed,Chain
S000525,"Goel, Shah and Parsa",Supermarket,Telangana,Hyderabad,Hyderabad,145561,10.781562,79.394164,2021-01-14,Closed,Independent
S000526,"Bhattacharyya, Master and Sinha",Hypermarket,Maharashtra,Mumbai,Mumbai,145868,8.110652,70.541222,2013-08-21,Closed,Independent
S000527,"Kadakia, Bhardwaj and Chopra",Kirana,Maharashtra,Pune,Pune,794695,14.001637,86.507529,2015-05-02,Active,Chain
S000528,"Pandya, Dayal and Taneja",Hypermarket,Maharashtra,Pune,Pune,729343,30.761421,81.657389,2006-07-21,Closed,Independent
S000529,Bajwa Group,Supermarket,Gujarat,Ahmedabad,Ahmedabad,396605,18.759595,79.06191,2018-05-25,Active,Chain
S000530,"Kala, Apte and Jaggi",Hypermarket,Maharashtra,Mumbai,Mumbai,414488,20.752472,75.638623,2017-07-09,Closed,Independent
S000531,Comar Ltd,Kirana,Karnataka,Bengaluru,Bengaluru Urban,569902,10.485512,77.96995,2013-02-06,Closed,Independent
S000532,Nigam-Srinivas,Pharmacy,Maharashtra,Mumbai,Mumbai,027278,31.733751,80.14033,2017-11-25,Closed,Independent
S000533,Sachdev-Bhalla,Hypermarket,West Bengal,Kolkata,Kolkata,958803,10.289696,94.180539,2026-02-22,Active,Independent
S000534,"Narula, Pandya and Bhatti",Pharmacy,Maharashtra,Pune,Pune,405682,13.01349,96.546672,2025-12-04,Active,Independent
S000535,"Ramachandran, Grover and Dada",Kirana,Karnataka,Bengaluru,Bengaluru Urban,504617,20.277872,96.660118,2014-08-02,Closed,Independent
S000536,Seth-Mittal,Convenience Store,Karnataka,Bengaluru,Bengaluru Urban,842150,15.478704,94.41333,2013-05-17,Active,Independent
S000537,Sawhney PLC,Convenience Store,Gujarat,Ahmedabad,Ahmedabad,782357,19.523295,77.457677,2024-04-25,Closed,Chain
S000538,Narang-Dhar,Convenience Store,Maharashtra,Mumbai,Mumbai,823076,25.039707,90.668884,2024-04-09,Active,Chain
S000539,Agrawal LLC,Supermarket,Karnataka,Bengaluru,Bengaluru Urban,915701,24.431224,84.897636,2024-03-18,Active,Independent
S000540,"Muni, Bajaj and Muni",Hypermarket,Maharashtra,Pune,Pune,533448,33.156783,93.523938,2017-05-11,Closed,Chain
S000541,Dalal-Mahajan,Pharmacy,Gujarat,Ahmedabad,Ahmedabad,241098,24.588674,81.718352,2023-12-28,Active,Chain
S000542,Jhaveri PLC,Supermarket,Gujarat,Ahmedabad,Ahmedabad,854249,25.92909,87.743573,2014-10-30,Closed,Independent
S000543,Bobal LLC,Hypermarket,Gujarat,Ahmedabad,Ahmedabad,870207,28.024899,69.429438,2008-03-20,Closed,Chain
S000544,Rajagopal Inc,Kirana,Delhi,New Delhi,New Delhi,662997,17.798116,91.01591,2018-08-07,Closed,Chain
S000545,Natarajan-Hora,Kirana,West Bengal,Kolkata,Kolkata,792171,36.202403,74.610765,2021-12-31,Closed,Chain
S000546,Shroff-Singhal,Hypermarket,Delhi,New Delhi,New Delhi,329456,29.135183,85.544395,2012-09-26,Active,Independent
S000547,"Narayanan, Nair and Setty",Supermarket,West Bengal,Kolkata,Kolkata,017157,34.489551,79.80794,2022-03-12,Closed,Chain
S000548,Mandal LLC,Convenience Store,Maharashtra,Mumbai,Mumbai,816158,30.953221,69.902892,2008-11-29,Closed,Independent
S000549,Walia-Shenoy,Supermarket,Maharashtra,Mumbai,Mumbai,963938,13.59014,92.154968,2011-11-29,Active,Independent
S000550,Rajagopalan-Bhatti,Pharmacy,Maharashtra,Mumbai,Mumbai,396695,9.466219,78.450877,2025-01-10,Active,Chain
S000551,"Keer, Ghose and Brahmbhatt",Pharmacy,Delhi,New Delhi,New Delhi,199758,22.648665,86.426884,2009-10-27,Active,Independent
S000552,Goda-Morar,Hypermarket,Tamil Nadu,Chennai,Chennai,191965,22.174815,80.937,2023-04-26,Closed,Chain
S000553,"Bhat, Chana and Kalla",Supermarket,Delhi,New Delhi,New Delhi,902278,32.291959,75.501138,2016-06-01,Active,Chain
S000554,Sekhon-Hayre,Pharmacy,Maharashtra,Mumbai,Mumbai,549465,9.43988,92.760818,2009-07-15,Active,Independent
S000555,"Anand, Uppal and Raval",Supermarket,Tamil Nadu,Chennai,Chennai,405800,15.803424,79.875709,2025-07-21,Active,Independent
S000556,Choudhary-Manda,Supermarket,West Bengal,Kolkata,Kolkata,369656,26.773775,85.433117,2020-04-24,Active,Independent
S000557,Saran-Kakar,Convenience Store,Telangana,Hyderabad,Hyderabad,723865,31.347482,76.858331,2020-09-11,Closed,Chain
S000558,Mani Ltd,Hypermarket,Gujarat,Ahmedabad,Ahmedabad,201027,21.310943,74.328063,2021-05-11,Closed,Chain
S000559,Chad and Sons,Kirana,Maharashtra,Pune,Pune,796927,22.833898,87.208308,2023-10-31,Closed,Chain
S000560,Sengupta-Rajagopalan,Kirana,Telangana,Hyderabad,Hyderabad,326909,21.970414,77.752226,2023-06-13,Closed,Chain
S000561,"Khalsa, Thaker and Luthra",Hypermarket,Telangana,Hyderabad,Hyderabad,895009,27.027469,95.613446,2022-12-10,Closed,Independent
S000562,"Pillay, Chowdhury and Subramaniam",Convenience Store,Karnataka,Bengaluru,Bengaluru Urban,284781,30.198757,94.090924,2024-04-22,Closed,Chain
S000563,"Chakrabarti, Korpal and Sodhi",Kirana,Karnataka,Bengaluru,Bengaluru Urban,894905,27.006617,96.926604,2024-09-14,Closed,Chain
S000564,Singh Group,Pharmacy,Gujarat,Ahmedabad,Ahmedabad,956544,29.365231,84.907687,2012-03-13,Active,Chain
S000565,Modi Ltd,Convenience Store,Tamil Nadu,Chennai,Chennai,079290,26.511094,81.796321,2016-06-04,Closed,Chain
S000566,"Bala, Mangat and Sundaram",Convenience Store,Karnataka,Bengaluru,Bengaluru Urban,281442,13.25294,70.830489,2016-01-22,Active,Chain
S000567,Kurian-Atwal,Hypermarket,Karnataka,Bengaluru,Bengaluru Urban,929275,26.978605,74.445352,2012-06-19,Active,Chain
S000568,Keer-Sundaram,Hypermarket,Gujarat,Ahmedabad,Ahmedabad,805129,18.77879,84.98155,2011-09-29,Closed,Independent
S000569,Sachar-Rajagopal,Kirana,West Bengal,Kolkata,Kolkata,723950,33.125408,84.923664,2015-06-30,Active,Chain
S000570,Ben and Sons,Convenience Store,Tamil Nadu,Chennai,Chennai,674783,11.474662,87.740235,2019-06-03,Closed,Chain
S000571,"Ramakrishnan, Som and Lala",Supermarket,Maharashtra,Mumbai,Mumbai,860476,11.983593,73.808601,2017-03-29,Closed,Chain
S000572,"Barman, Chatterjee and Wali",Hypermarket,Karnataka,Bengaluru,Bengaluru Urban,694544,33.009424,73.230346,2009-11-04,Active,Chain
S000573,Raman-Shenoy,Supermarket,Delhi,New Delhi,New Delhi,938525,17.089008,69.682394,2025-02-17,Closed,Chain
S000574,Anand Inc,Supermarket,Tamil Nadu,Chennai,Chennai,618175,24.712089,72.594618,2013-12-18,Active,Independent
S000575,"Mander, Krishnamurthy and Hans",Pharmacy,Gujarat,Ahmedabad,Ahmedabad,091093,19.698411,95.994507,2010-08-23,Closed,Independent
S000576,"Dar, Chadha and De",Convenience Store,Maharashtra,Mumbai,Mumbai,921244,13.783013,78.819941,2022-05-22,Active,Chain
S000577,"Borra, Setty and Malhotra",Kirana,Tamil Nadu,Chennai,Chennai,542140,27.625696,86.173921,2019-07-11,Active,Independent
S000578,Natarajan-Bhasin,Hypermarket,Delhi,New Delhi,New Delhi,427173,11.738993,79.122964,2019-11-10,Closed,Independent
S000579,Swamy Inc,Kirana,Maharashtra,Pune,Pune,863917,16.647865,76.434006,2015-04-24,Closed,Chain
S000580,Banerjee Inc,Hypermarket,Karnataka,Bengaluru,Bengaluru Urban,947072,36.888029,82.215182,2006-07-12,Active,Independent
S000581,Ramakrishnan LLC,Kirana,Gujarat,Ahmedabad,Ahmedabad,569087,14.62413,89.087896,2022-10-08,Active,Independent
S000582,Raval-Boase,Convenience Store,Maharashtra,Mumbai,Mumbai,067198,22.634373,71.571697,2018-09-17,Active,Chain
S000583,Mitter-Rattan,Convenience Store,Telangana,Hyderabad,Hyderabad,158517,26.070909,85.223798,2016-05-13,Active,Independent
S000584,"Jain, Goda and Baral",Kirana,Maharashtra,Mumbai,Mumbai,346157,28.002743,80.086491,2009-05-21,Closed,Independent
S000585,"Sarma, Gupta and Dey",Pharmacy,Telangana,Hyderabad,Hyderabad,309376,28.354178,73.959353,2008-08-22,Active,Chain
S000586,"Morar, Tata and Walla",Kirana,Gujarat,Ahmedabad,Ahmedabad,005050,27.212006,75.829337,2020-04-18,Active,Chain
S000587,Kakar Ltd,Convenience Store,Maharashtra,Pune,Pune,829310,28.844221,71.414302,2011-04-26,Active,Independent
S000588,Bahl-Sinha,Supermarket,West Bengal,Kolkata,Kolkata,320204,25.661052,90.560809,2009-10-23,Active,Chain
S000589,Garde-Bhatt,Hypermarket,Gujarat,Ahmedabad,Ahmedabad,179931,12.650834,83.896024,2013-05-24,Active,Chain
S000590,Nazareth-Ratti,Supermarket,Delhi,New Delhi,New Delhi,198253,8.079402,87.477361,2008-01-19,Active,Chain
S000591,"Ghose, Nayak and Bhatnagar",Kirana,Karnataka,Bengaluru,Bengaluru Urban,426258,30.60626,70.176398,2012-02-11,Active,Chain
S000592,Kohli-Baria,Pharmacy,Tamil Nadu,Chennai,Chennai,196207,36.671312,76.584643,2009-03-31,Closed,Independent
S000593,Amble and Sons,Supermarket,Maharashtra,Pune,Pune,946723,33.350073,92.715212,2011-05-15,Closed,Chain
S000594,"Madan, Virk and Seshadri",Kirana,Gujarat,Ahmedabad,Ahmedabad,329092,10.754956,89.987916,2023-07-05,Active,Independent
S000595,"Chakrabarti, Mitra and Pall",Supermarket,Karnataka,Bengaluru,Bengaluru Urban,083318,17.531164,93.941301,2009-10-03,Closed,Independent
S000596,"Pathak, Zacharia and Tripathi",Hypermarket,Delhi,New Delhi,New Delhi,734031,13.303213,79.622548,2011-07-30,Closed,Chain
S000597,"Som, Tank and Goda",Pharmacy,Gujarat,Ahmedabad,Ahmedabad,005436,31.197074,86.816548,2015-01-20,Active,Independent
S000598,Setty-Bassi,Kirana,Karnataka,Bengaluru,Bengaluru Urban,082207,36.465506,92.486146,2024-01-08,Active,Chain
S000599,Bobal and Sons,Convenience Store,West Bengal,Kolkata,Kolkata,995635,27.673401,73.256556,2014-04-30,Closed,Chain
S000600,Nanda and Sons,Supermarket,Maharashtra,Mumbai,Mumbai,363631,22.00931,82.155561,2022-07-11,Closed,Chain
S000601,"Sundaram, Bhagat and Sarin",Kirana,Maharashtra,Mumbai,Mumbai,397265,15.586773,77.1129,2011-02-21,Active,Chain
S000602,Hari-Parmer,Pharmacy,Maharashtra,Pune,Pune,352090,27.189685,75.208733,2016-01-18,Closed,Chain
S000603,Choudhry Group,Convenience Store,Karnataka,Bengaluru,Bengaluru Urban,625349,33.869795,85.774506,2011-11-01,Active,Independent
S000604,"Garde, Karpe and Chadha",Pharmacy,West Bengal,Kolkata,Kolkata,873977,33.213053,70.171092,2015-12-31,Closed,Chain
S000605,Sangha Ltd,Hypermarket,Tamil Nadu,Chennai,Chennai,356939,36.134206,69.460171,2011-07-27,Active,Chain
S000606,"Ahluwalia, Sahni and Basu",Supermarket,Gujarat,Ahmedabad,Ahmedabad,780686,10.286087,80.881477,2022-10-22,Closed,Independent
S000607,"Chaudhari, Sethi and Tandon",Pharmacy,West Bengal,Kolkata,Kolkata,180632,17.165784,96.439451,2018-09-11,Active,Independent
S000608,Khare-Chana,Pharmacy,Gujarat,Ahmedabad,Ahmedabad,742799,9.039126,83.923865,2007-05-01,Active,Chain
S000609,Sheth-Devi,Pharmacy,Tamil Nadu,Chennai,Chennai,257016,35.560299,78.536932,2017-10-29,Active,Independent
S000610,"Bali, Minhas and Sandhu",Hypermarket,West Bengal,Kolkata,Kolkata,989319,24.244375,85.972981,2017-12-02,Closed,Chain
S000611,"Bhakta, Varma and Patla",Kirana,West Bengal,Kolkata,Kolkata,165790,10.825674,87.108397,2018-12-09,Active,Chain
S000612,Gill-Bhavsar,Hypermarket,Delhi,New Delhi,New Delhi,253817,23.883027,78.84282,2026-03-28,Active,Independent
S000613,"Kadakia, Kar and Nagi",Pharmacy,Karnataka,Bengaluru,Bengaluru Urban,486401,12.073026,88.788827,2019-03-09,Closed,Independent
S000614,Sethi-Sunder,Convenience Store,Telangana,Hyderabad,Hyderabad,788479,13.681723,71.501628,2019-01-10,Closed,Independent
S000615,"Bhatti, Guha and Shankar",Supermarket,West Bengal,Kolkata,Kolkata,162411,28.78685,71.125207,2012-02-08,Closed,Independent
S000616,Choudhury-Divan,Pharmacy,Maharashtra,Pune,Pune,238046,21.264248,85.090169,2024-12-02,Active,Chain
S000617,Som LLC,Convenience Store,Maharashtra,Mumbai,Mumbai,704310,29.350204,84.043564,2014-05-28,Closed,Chain
S000618,"Nayak, Sabharwal and Oza",Convenience Store,Karnataka,Bengaluru,Bengaluru Urban,798877,13.035858,91.64208,2016-11-05,Active,Chain
S000619,"Deo, Mohan and Garg",Convenience Store,Delhi,New Delhi,New Delhi,375402,33.560326,80.141278,2018-07-07,Active,Chain
S000620,Shah-Ganesan,Hypermarket,Gujarat,Ahmedabad,Ahmedabad,842222,36.144258,81.132525,2014-08-05,Active,Independent
S000621,Barman LLC,Convenience Store,Gujarat,Ahmedabad,Ahmedabad,745238,28.300414,89.704379,2007-09-06,Closed,Chain
S000622,"Nadig, Padmanabhan and Divan",Supermarket,Tamil Nadu,Chennai,Chennai,782841,14.081668,88.717152,2007-05-07,Closed,Independent
S000623,Tata-Dhillon,Convenience Store,Karnataka,Bengaluru,Bengaluru Urban,520885,23.732253,86.469446,2016-07-22,Active,Chain
S000624,Mann-Din,Convenience Store,West Bengal,Kolkata,Kolkata,517028,24.548508,87.34756,2010-06-23,Closed,Chain
S000625,Bakshi-Ratti,Kirana,Gujarat,Ahmedabad,Ahmedabad,751509,23.15917,68.732892,2013-02-20,Active,Independent
S000626,"Vyas, Kapadia and Mall",Supermarket,Maharashtra,Mumbai,Mumbai,018718,15.74237,90.780434,2019-12-02,Closed,Chain
S000627,Swaminathan LLC,Kirana,Karnataka,Bengaluru,Bengaluru Urban,562656,28.027251,76.559076,2019-03-09,Active,Chain
S000628,Mane LLC,Kirana,West Bengal,Kolkata,Kolkata,478137,25.867156,87.590254,2020-08-22,Active,Chain
S000629,Mani-Gade,Convenience Store,Tamil Nadu,Chennai,Chennai,629912,30.744908,91.165831,2013-07-27,Closed,Independent
S000630,Soman-Vohra,Pharmacy,Gujarat,Ahmedabad,Ahmedabad,196106,20.080421,90.855234,2015-10-19,Closed,Independent
S000631,Gill-Shere,Hypermarket,Maharashtra,Mumbai,Mumbai,326487,13.889529,93.196649,2007-12-08,Closed,Independent
S000632,Modi-Tak,Convenience Store,Delhi,New Delhi,New Delhi,300244,23.851839,85.498222,2022-07-30,Active,Chain
S000633,Mani Group,Supermarket,West Bengal,Kolkata,Kolkata,730147,36.520146,70.159601,2008-10-08,Active,Independent
S000634,"Pathak, Srivastava and Sarin",Kirana,Gujarat,Ahmedabad,Ahmedabad,715890,20.426727,84.14136,2015-05-01,Active,Independent
S000635,Bhardwaj and Sons,Kirana,Telangana,Hyderabad,Hyderabad,725204,17.586321,88.58099,2018-10-15,Active,Independent
S000636,Parekh-Bava,Hypermarket,Karnataka,Bengaluru,Bengaluru Urban,481832,25.30953,90.436168,2009-09-18,Closed,Chain
S000637,"Ganesh, Naidu and Mutti",Kirana,Delhi,New Delhi,New Delhi,451895,30.736912,77.217911,2011-05-23,Active,Independent
S000638,Devan PLC,Convenience Store,Maharashtra,Pune,Pune,576521,12.621744,83.749324,2013-11-29,Closed,Independent
S000639,Thakur and Sons,Supermarket,Delhi,New Delhi,New Delhi,898881,33.618505,87.2367,2020-09-12,Closed,Chain
S000640,Bose-Dada,Supermarket,Telangana,Hyderabad,Hyderabad,075452,35.55894,85.930137,2021-07-15,Closed,Independent
S000641,"Virk, Oommen and Gera",Hypermarket,Maharashtra,Pune,Pune,013223,20.92435,94.230397,2016-12-16,Active,Independent
S000642,Kadakia and Sons,Pharmacy,Delhi,New Delhi,New Delhi,611076,34.56204,95.404642,2007-12-12,Closed,Chain
S000643,Chokshi Inc,Kirana,Telangana,Hyderabad,Hyderabad,714014,34.428742,91.841163,2006-11-06,Closed,Chain
S000644,Dasgupta PLC,Kirana,West Bengal,Kolkata,Kolkata,932501,16.596585,86.894318,2011-06-14,Closed,Independent
S000645,"Mall, Pall and Pandey",Supermarket,Maharashtra,Pune,Pune,893891,36.177234,90.426237,2009-11-14,Active,Independent
S000646,"Atwal, Wadhwa and Kalla",Supermarket,Tamil Nadu,Chennai,Chennai,428013,33.083575,80.302074,2023-08-27,Active,Independent
S000647,"Soman, Peri and Goyal",Kirana,Gujarat,Ahmedabad,Ahmedabad,125663,29.659834,72.458883,2023-12-30,Closed,Chain
S000648,Reddy Inc,Kirana,Maharashtra,Mumbai,Mumbai,171827,10.124193,73.161773,2018-10-16,Closed,Independent
S000649,"Mani, Baria and Butala",Hypermarket,Tamil Nadu,Chennai,Chennai,716479,19.821351,81.082644,2017-02-11,Closed,Chain
S000650,"Sawhney, Kara and Reddy",Kirana,Delhi,New Delhi,New Delhi,631752,19.295554,71.430867,2006-12-07,Active,Independent
S000651,"Swamy, Cheema and Randhawa",Kirana,Maharashtra,Mumbai,Mumbai,811266,18.373304,82.582272,2009-12-17,Closed,Chain
S000652,"Ganguly, Bhattacharyya and Patla",Hypermarket,Maharashtra,Pune,Pune,539613,30.192953,80.692608,2020-12-13,Closed,Independent
S000653,"Tata, Mallick and Mahajan",Supermarket,West Bengal,Kolkata,Kolkata,579678,23.470565,71.955062,2015-12-27,Closed,Chain
S000654,Sha Inc,Hypermarket,Karnataka,Bengaluru,Bengaluru Urban,477320,27.641382,94.510899,2009-11-20,Closed,Independent
S000655,"Bera, Bir and Tara",Kirana,Karnataka,Bengaluru,Bengaluru Urban,269524,9.211421,84.608839,2009-10-11,Closed,Independent
S000656,Venkatesh Group,Supermarket,Telangana,Hyderabad,Hyderabad,347784,29.700601,94.202845,2024-12-15,Closed,Independent
S000657,Zachariah-Badami,Convenience Store,Gujarat,Ahmedabad,Ahmedabad,616756,12.131198,73.335789,2021-07-22,Closed,Independent
S000658,Banik-Bali,Supermarket,Maharashtra,Pune,Pune,842762,27.458359,84.451487,2017-02-17,Active,Chain
S000659,"Ramachandran, Sura and Choudhary",Hypermarket,Maharashtra,Pune,Pune,889778,27.478872,75.269941,2011-10-26,Active,Chain
S000660,"Bhalla, Raman and Lall",Hypermarket,Delhi,New Delhi,New Delhi,969545,11.718239,87.008716,2008-08-03,Active,Chain
S000661,Bath and Sons,Supermarket,Maharashtra,Pune,Pune,590561,17.215792,81.068733,2021-01-24,Closed,Independent
S000662,Parikh-Sabharwal,Hypermarket,Delhi,New Delhi,New Delhi,033349,35.801109,72.890546,2009-05-22,Closed,Independent
S000663,"Bhatti, Mody and Contractor",Pharmacy,Tamil Nadu,Chennai,Chennai,208507,16.023715,78.425094,2020-11-15,Closed,Chain
S000664,"Varma, Sama and Loke",Pharmacy,West Bengal,Kolkata,Kolkata,790569,18.403506,76.858682,2019-10-12,Active,Independent
S000665,Chaudhari-Suresh,Hypermarket,Maharashtra,Pune,Pune,357852,32.902696,72.060048,2016-09-09,Active,Chain
S000666,Sarin-Jaggi,Kirana,Maharashtra,Pune,Pune,183440,33.87105,92.638031,2016-08-12,Active,Chain
S000667,"Ratti, Kara and Chanda",Kirana,Tamil Nadu,Chennai,Chennai,954198,23.996226,83.76061,2022-09-02,Closed,Independent
S000668,Kadakia-Palan,Pharmacy,Delhi,New Delhi,New Delhi,484685,14.475893,90.3922,2013-04-22,Closed,Independent
S000669,Ratti-Krishnamurthy,Convenience Store,West Bengal,Kolkata,Kolkata,820829,22.801948,79.50677,2023-06-26,Active,Independent
S000670,Sibal LLC,Convenience Store,Karnataka,Bengaluru,Bengaluru Urban,908357,12.07075,72.61745,2011-07-12,Active,Chain
S000671,Dora Ltd,Kirana,Delhi,New Delhi,New Delhi,665136,14.345754,82.141622,2015-08-01,Active,Chain
S000672,Dyal-Kunda,Supermarket,Delhi,New Delhi,New Delhi,631230,9.241445,73.996448,2014-11-09,Closed,Chain
S000673,Shetty-Sunder,Pharmacy,West Bengal,Kolkata,Kolkata,603242,33.565007,69.157236,2007-06-29,Closed,Independent
S000674,Mall-Goda,Hypermarket,Telangana,Hyderabad,Hyderabad,700159,24.780312,84.534644,2016-08-21,Closed,Chain
S000675,Ray LLC,Convenience Store,Delhi,New Delhi,New Delhi,623198,26.94676,92.228603,2010-08-09,Closed,Chain
S000676,"Vohra, Krishnamurthy and Taneja",Convenience Store,Tamil Nadu,Chennai,Chennai,391559,19.769424,91.699866,2019-10-08,Closed,Chain
S000677,"Keer, Sampath and Kamdar",Convenience Store,West Bengal,Kolkata,Kolkata,123476,8.191333,93.578993,2015-02-25,Closed,Independent
S000678,"Bhalla, Swaminathan and Walla",Kirana,Tamil Nadu,Chennai,Chennai,158673,22.921697,76.143476,2015-12-13,Active,Independent
S000679,Patil Group,Hypermarket,Karnataka,Bengaluru,Bengaluru Urban,409003,25.458588,91.691697,2015-02-08,Active,Chain
S000680,"Rajagopalan, More and Patil",Kirana,Delhi,New Delhi,New Delhi,837606,21.963983,81.885625,2015-03-12,Active,Independent
S000681,Chana-Keer,Kirana,Gujarat,Ahmedabad,Ahmedabad,327560,15.066439,71.708668,2015-10-28,Active,Independent
S000682,Swamy Group,Convenience Store,Maharashtra,Mumbai,Mumbai,561248,12.259088,72.8239,2008-10-03,Active,Chain
S000683,Salvi-Narain,Hypermarket,Maharashtra,Mumbai,Mumbai,002720,35.470362,74.281209,2020-02-18,Closed,Chain
S000684,Mody LLC,Supermarket,Karnataka,Bengaluru,Bengaluru Urban,123829,32.080544,85.424323,2020-06-17,Active,Chain
S000685,Seth-Sridhar,Hypermarket,Karnataka,Bengaluru,Bengaluru Urban,429543,34.748206,85.299468,2009-05-15,Active,Independent
S000686,Pillai-Gopal,Pharmacy,Gujarat,Ahmedabad,Ahmedabad,693008,11.834183,68.480316,2014-04-13,Closed,Independent
S000687,Shere and Sons,Supermarket,Maharashtra,Pune,Pune,206969,21.800206,85.827697,2015-05-09,Active,Independent
S000688,Chakraborty LLC,Pharmacy,Maharashtra,Pune,Pune,910867,27.122386,94.157558,2023-04-25,Active,Chain
S000689,Kapur Ltd,Hypermarket,Gujarat,Ahmedabad,Ahmedabad,344762,33.369905,88.231641,2021-03-05,Closed,Independent
S000690,Kale LLC,Pharmacy,West Bengal,Kolkata,Kolkata,626204,18.165017,91.33401,2015-05-29,Active,Chain
S000691,Seshadri and Sons,Hypermarket,Karnataka,Bengaluru,Bengaluru Urban,971072,21.837096,74.742874,2017-07-01,Active,Chain
S000692,"Rao, Kala and Rajagopal",Hypermarket,Gujarat,Ahmedabad,Ahmedabad,941180,13.481609,88.565316,2008-04-09,Active,Independent
S000693,Keer-Sinha,Pharmacy,Maharashtra,Mumbai,Mumbai,990048,26.981838,87.945235,2019-06-18,Closed,Chain
S000694,Rana-Prabhakar,Kirana,Delhi,New Delhi,New Delhi,809242,12.488579,86.895702,2023-08-22,Closed,Chain
S000695,Nori-Sidhu,Convenience Store,Gujarat,Ahmedabad,Ahmedabad,158624,18.603679,75.991256,2010-06-23,Closed,Independent
S000696,Basu-Datta,Convenience Store,Gujarat,Ahmedabad,Ahmedabad,456449,30.729864,81.991565,2015-06-22,Closed,Chain
S000697,"Munshi, Sarin and Gala",Hypermarket,Telangana,Hyderabad,Hyderabad,728703,24.751883,90.45164,2011-07-22,Closed,Independent
S000698,Karpe and Sons,Supermarket,Maharashtra,Pune,Pune,742761,20.951251,88.280032,2023-05-04,Active,Independent
S000699,Sathe LLC,Convenience Store,Tamil Nadu,Chennai,Chennai,771215,19.616266,77.814698,2009-09-06,Active,Independent
S000700,Mander and Sons,Kirana,Gujarat,Ahmedabad,Ahmedabad,849939,31.326711,91.874409,2006-08-22,Closed,Chain
S000701,"Gole, Saha and Bose",Kirana,Maharashtra,Pune,Pune,715041,15.629668,78.754219,2019-11-29,Active,Chain
S000702,Cherian-Naik,Convenience Store,Gujarat,Ahmedabad,Ahmedabad,017774,27.029082,76.307608,2006-09-12,Active,Independent
S000703,Bassi-Sethi,Pharmacy,West Bengal,Kolkata,Kolkata,923045,8.310602,92.666461,2008-05-22,Closed,Independent
S000704,"Bobal, Raj and Chanda",Convenience Store,Maharashtra,Mumbai,Mumbai,423610,22.805888,88.255042,2013-08-01,Active,Independent
S000705,Rama Group,Supermarket,Delhi,New Delhi,New Delhi,214764,26.995554,96.293731,2010-12-19,Active,Chain
S000706,Char-Pillai,Hypermarket,Gujarat,Ahmedabad,Ahmedabad,776749,27.420199,79.758078,2020-11-22,Active,Independent
S000707,Sami LLC,Kirana,Maharashtra,Pune,Pune,661085,23.938187,89.058023,2022-04-09,Closed,Chain
S000708,"Kapur, Dubey and Tandon",Supermarket,Telangana,Hyderabad,Hyderabad,476174,25.584539,73.641231,2011-07-22,Closed,Independent
S000709,Mital and Sons,Supermarket,Telangana,Hyderabad,Hyderabad,490810,19.806904,71.087484,2023-12-20,Active,Chain
S000710,Uppal Group,Kirana,Delhi,New Delhi,New Delhi,179454,31.285325,95.744571,2026-06-04,Closed,Chain
S000711,Thakur Inc,Convenience Store,Gujarat,Ahmedabad,Ahmedabad,722601,22.025267,75.054924,2020-08-29,Closed,Chain
S000712,"Mishra, Murthy and Sha",Convenience Store,West Bengal,Kolkata,Kolkata,945232,32.998675,81.977135,2009-02-28,Closed,Independent
S000713,"Lad, Cherian and Saraf",Supermarket,Gujarat,Ahmedabad,Ahmedabad,061027,27.630476,74.667974,2022-02-26,Closed,Chain
S000714,"Ravel, Sur and Mitter",Convenience Store,Delhi,New Delhi,New Delhi,641220,23.533905,88.323738,2012-12-28,Closed,Independent
S000715,Babu Ltd,Kirana,Telangana,Hyderabad,Hyderabad,037236,19.568988,89.714856,2024-10-28,Closed,Independent
S000716,Chadha LLC,Pharmacy,Karnataka,Bengaluru,Bengaluru Urban,276012,17.102311,74.338418,2011-09-08,Closed,Independent
S000717,"Saxena, Sundaram and Sinha",Pharmacy,Tamil Nadu,Chennai,Chennai,793349,29.376255,74.81098,2019-10-30,Active,Chain
S000718,Nath Inc,Supermarket,Tamil Nadu,Chennai,Chennai,667998,13.88023,75.241168,2016-05-23,Closed,Independent
S000719,Sura Group,Kirana,Maharashtra,Pune,Pune,899730,34.685456,87.598552,2024-06-22,Closed,Independent
S000720,Sami PLC,Pharmacy,Maharashtra,Mumbai,Mumbai,814671,18.7647,77.14709,2023-05-03,Closed,Chain
S000721,"Palan, Sen and Sarin",Convenience Store,Karnataka,Bengaluru,Bengaluru Urban,243757,16.127732,74.440691,2014-05-25,Active,Independent
S000722,"Kanda, Nori and Sidhu",Pharmacy,Gujarat,Ahmedabad,Ahmedabad,466572,35.249978,68.944317,2013-07-20,Closed,Chain
S000723,Chadha-Subramanian,Pharmacy,Karnataka,Bengaluru,Bengaluru Urban,232971,36.318709,88.249092,2020-08-26,Closed,Chain
S000724,Mitter-Keer,Kirana,Maharashtra,Mumbai,Mumbai,800545,27.548989,79.003412,2011-11-24,Active,Chain
S000725,Thakur Inc,Convenience Store,Delhi,New Delhi,New Delhi,561931,32.993419,73.427421,2025-08-15,Closed,Independent
S000726,Sur LLC,Pharmacy,Telangana,Hyderabad,Hyderabad,508428,35.797278,77.949797,2010-01-16,Active,Chain
S000727,"Bedi, Sarma and Shankar",Supermarket,Gujarat,Ahmedabad,Ahmedabad,199180,20.153695,89.813677,2023-10-05,Closed,Chain
S000728,Ganesh Ltd,Pharmacy,Telangana,Hyderabad,Hyderabad,352478,13.216788,71.803036,2023-06-16,Active,Independent
S000729,"Chaudhary, Dube and Patla",Supermarket,Telangana,Hyderabad,Hyderabad,213760,24.104861,92.832953,2014-11-05,Active,Independent
S000730,Om-Mangat,Pharmacy,Karnataka,Bengaluru,Bengaluru Urban,145653,31.364382,73.121611,2011-08-29,Closed,Independent
S000731,"Sama, Kari and Devi",Pharmacy,Delhi,New Delhi,New Delhi,667850,16.700991,84.302015,2021-07-23,Active,Chain
S000732,Anne Ltd,Supermarket,Maharashtra,Pune,Pune,155626,9.741055,91.600724,2008-08-03,Closed,Independent
S000733,Bansal-Dora,Hypermarket,West Bengal,Kolkata,Kolkata,846684,15.533305,78.448891,2017-03-04,Closed,Chain
S000734,Anand-Mammen,Pharmacy,Maharashtra,Mumbai,Mumbai,673899,11.515887,93.153689,2021-07-17,Active,Independent
S000735,"Pai, Ravel and Hora",Hypermarket,Telangana,Hyderabad,Hyderabad,108562,17.427618,82.802891,2024-03-17,Closed,Independent
S000736,"Mander, Kala and Chander",Convenience Store,Gujarat,Ahmedabad,Ahmedabad,852008,16.309184,86.319654,2015-04-20,Active,Independent
S000737,Modi Ltd,Pharmacy,Delhi,New Delhi,New Delhi,810548,26.306929,84.57749,2018-07-24,Active,Independent
S000738,Batta Ltd,Hypermarket,Karnataka,Bengaluru,Bengaluru Urban,749075,14.61832,77.189469,2014-07-14,Closed,Chain
S000739,"Walla, Kaur and Palla",Hypermarket,Gujarat,Ahmedabad,Ahmedabad,492683,33.743062,90.648247,2010-01-29,Closed,Chain
S000740,Varty-Hans,Supermarket,Gujarat,Ahmedabad,Ahmedabad,712661,13.3327,68.669932,2009-08-21,Active,Chain
S000741,Sandal and Sons,Supermarket,Maharashtra,Pune,Pune,371586,12.840403,70.98727,2025-07-08,Active,Chain
S000742,"Rana, Lalla and Tara",Kirana,Maharashtra,Mumbai,Mumbai,776228,30.357077,83.195501,2010-10-28,Active,Independent
S000743,Shankar-Dayal,Convenience Store,Telangana,Hyderabad,Hyderabad,377028,12.502956,86.990148,2019-01-24,Closed,Chain
S000744,Rege Inc,Supermarket,Tamil Nadu,Chennai,Chennai,594082,29.390204,80.851652,2010-07-04,Active,Independent
S000745,Mody-Prasad,Kirana,Karnataka,Bengaluru,Bengaluru Urban,470229,9.019494,78.348396,2020-11-06,Closed,Chain
S000746,Mody LLC,Convenience Store,West Bengal,Kolkata,Kolkata,270185,35.11087,83.907813,2008-10-18,Active,Independent
S000747,Sahni Group,Convenience Store,West Bengal,Kolkata,Kolkata,975679,20.614344,86.553809,2011-01-07,Closed,Chain
S000748,Thaman Ltd,Convenience Store,West Bengal,Kolkata,Kolkata,772519,14.586725,70.597067,2020-06-08,Closed,Chain
S000749,Kaul-Rana,Hypermarket,Gujarat,Ahmedabad,Ahmedabad,807412,12.515809,68.306119,2007-05-06,Active,Chain
S000750,"More, Dasgupta and Chada",Pharmacy,Telangana,Hyderabad,Hyderabad,989098,23.517868,87.945329,2012-12-10,Closed,Chain
S000751,Thakkar-Bahl,Kirana,Telangana,Hyderabad,Hyderabad,820433,30.210207,91.140979,2026-03-21,Active,Independent
S000752,Chad-Walla,Supermarket,Delhi,New Delhi,New Delhi,690705,19.94034,84.256076,2021-05-15,Closed,Independent
S000753,Sachdeva Inc,Pharmacy,Karnataka,Bengaluru,Bengaluru Urban,641118,32.024379,74.39718,2012-03-21,Active,Chain
S000754,Dhawan-Goswami,Convenience Store,Tamil Nadu,Chennai,Chennai,124620,30.171611,94.388678,2017-07-26,Closed,Chain
S000755,Bala Ltd,Pharmacy,Telangana,Hyderabad,Hyderabad,461526,13.452018,69.985455,2017-07-13,Active,Chain
S000756,Prashad-Dara,Pharmacy,Maharashtra,Pune,Pune,339937,25.914153,75.89189,2023-10-21,Closed,Independent
S000757,"Rajan, Contractor and Luthra",Kirana,Delhi,New Delhi,New Delhi,578617,12.41233,96.12177,2007-06-26,Active,Independent
S000758,Kaur-Bahl,Hypermarket,Maharashtra,Pune,Pune,891382,15.806659,88.740682,2016-11-11,Active,Independent
S000759,"Ray, Sehgal and Chacko",Supermarket,Maharashtra,Pune,Pune,258238,8.427021,74.298454,2020-12-01,Closed,Chain
S000760,"Seth, Barman and Agarwal",Hypermarket,West Bengal,Kolkata,Kolkata,942007,21.44685,90.951317,2015-10-19,Closed,Independent
S000761,"Krishna, Rai and Panchal",Kirana,Karnataka,Bengaluru,Bengaluru Urban,984028,15.728604,79.380231,2025-08-28,Closed,Independent
S000762,Mital Inc,Hypermarket,Tamil Nadu,Chennai,Chennai,128463,31.700271,92.019309,2023-09-04,Active,Independent
S000763,Oommen-Lal,Pharmacy,Gujarat,Ahmedabad,Ahmedabad,435537,15.167704,96.841527,2017-09-03,Active,Chain
S000764,Deol Ltd,Convenience Store,Maharashtra,Pune,Pune,970026,27.314229,74.044967,2025-05-30,Closed,Chain
S000765,"Suresh, Ramaswamy and Yohannan",Supermarket,Delhi,New Delhi,New Delhi,180715,26.245763,69.223392,2019-04-22,Active,Chain
S000766,"Parmar, Ram and Goel",Hypermarket,West Bengal,Kolkata,Kolkata,175370,13.762985,93.738068,2014-01-13,Active,Independent
S000767,"Bahri, Mand and Parmar",Pharmacy,Tamil Nadu,Chennai,Chennai,194337,17.410891,72.85345,2018-11-07,Closed,Independent
S000768,Mand Group,Supermarket,Gujarat,Ahmedabad,Ahmedabad,036149,8.258966,69.217808,2023-07-10,Closed,Independent
S000769,Garde-Hari,Kirana,Delhi,New Delhi,New Delhi,192124,15.212945,82.497657,2025-11-21,Closed,Independent
S000770,Virk Ltd,Hypermarket,Maharashtra,Mumbai,Mumbai,308948,26.692672,88.338516,2021-12-11,Active,Independent
S000771,Sane Ltd,Supermarket,West Bengal,Kolkata,Kolkata,566418,17.185447,84.192163,2022-05-17,Closed,Chain
S000772,Pathak-Varughese,Kirana,Tamil Nadu,Chennai,Chennai,304687,27.988249,78.386857,2017-04-05,Active,Chain
S000773,Ramanathan and Sons,Pharmacy,Maharashtra,Mumbai,Mumbai,190361,28.492153,84.211719,2015-01-02,Closed,Independent
S000774,Gala LLC,Convenience Store,Karnataka,Bengaluru,Bengaluru Urban,110760,18.082276,89.23967,2017-11-15,Closed,Independent
S000775,Kota-Chokshi,Convenience Store,Maharashtra,Pune,Pune,350583,12.495739,76.574507,2008-12-24,Closed,Chain
S000776,"Sarna, Chandran and Sekhon",Kirana,West Bengal,Kolkata,Kolkata,100651,30.501619,82.672774,2010-11-02,Active,Independent
S000777,Sathe Inc,Convenience Store,Delhi,New Delhi,New Delhi,961108,14.92481,88.909103,2008-04-10,Closed,Independent
S000778,Raj-Ratti,Convenience Store,West Bengal,Kolkata,Kolkata,963990,12.469814,76.210743,2021-12-04,Closed,Chain
S000779,Shetty-Sangha,Kirana,Maharashtra,Pune,Pune,507859,23.172816,69.933715,2013-01-18,Active,Independent
S000780,Chauhan Inc,Supermarket,Maharashtra,Mumbai,Mumbai,939284,11.1046,73.556883,2018-08-04,Active,Chain
S000781,Srivastava-Saxena,Convenience Store,West Bengal,Kolkata,Kolkata,320024,26.095144,85.118726,2026-05-22,Active,Chain
S000782,Varghese-Parmar,Convenience Store,Tamil Nadu,Chennai,Chennai,982274,28.817511,68.379497,2018-03-02,Active,Chain
S000783,Pillay-Anand,Pharmacy,Maharashtra,Pune,Pune,038806,31.229579,69.760305,2018-03-13,Closed,Chain
S000784,Iyer Ltd,Convenience Store,Maharashtra,Mumbai,Mumbai,153779,15.708653,69.178941,2017-10-07,Active,Chain
S000785,"Nayak, Mistry and Sahota",Supermarket,Maharashtra,Pune,Pune,217073,35.857016,70.816458,2006-08-16,Active,Chain
S000786,"Kapoor, Karpe and Shukla",Supermarket,Tamil Nadu,Chennai,Chennai,375636,23.259569,75.214128,2012-10-07,Active,Chain
S000787,Patil Inc,Convenience Store,Maharashtra,Pune,Pune,508124,18.380938,81.302897,2021-06-26,Closed,Independent
S000788,Parsa Inc,Supermarket,Karnataka,Bengaluru,Bengaluru Urban,334234,23.948999,82.636091,2012-06-05,Active,Chain
S000789,Korpal-Gokhale,Hypermarket,Delhi,New Delhi,New Delhi,024102,23.952359,96.908659,2019-05-24,Closed,Chain
S000790,"Choudhry, Nigam and Kade",Hypermarket,Gujarat,Ahmedabad,Ahmedabad,735528,25.643988,84.331196,2021-04-04,Active,Chain
S000791,"Bhattacharyya, Dani and Dhawan",Hypermarket,Telangana,Hyderabad,Hyderabad,338655,35.887901,80.977494,2021-02-11,Closed,Independent
S000792,"Konda, Batra and Gulati",Hypermarket,Maharashtra,Mumbai,Mumbai,253042,25.277122,83.010671,2023-10-17,Closed,Independent
S000793,"Suresh, Kadakia and Bumb",Supermarket,Telangana,Hyderabad,Hyderabad,912868,14.229862,77.132236,2019-03-27,Closed,Independent
S000794,Venkataraman-Shetty,Kirana,Maharashtra,Pune,Pune,558777,21.350724,72.527106,2015-08-18,Closed,Chain
S000795,"Rattan, Bansal and Johal",Supermarket,Tamil Nadu,Chennai,Chennai,373634,15.431071,76.708771,2020-12-17,Closed,Independent
S000796,Dugar-Prasad,Hypermarket,Maharashtra,Pune,Pune,812147,30.994222,73.014172,2024-02-25,Active,Chain
S000797,Karpe-Barman,Convenience Store,Maharashtra,Mumbai,Mumbai,895677,19.064837,90.623535,2021-03-19,Closed,Chain
S000798,Pillai-Tank,Pharmacy,Gujarat,Ahmedabad,Ahmedabad,460273,34.977136,71.495675,2015-07-16,Active,Independent
S000799,"Borra, Parmer and Butala",Kirana,Gujarat,Ahmedabad,Ahmedabad,888143,16.838718,69.194285,2009-11-05,Active,Chain
S000800,Bora LLC,Supermarket,Tamil Nadu,Chennai,Chennai,835354,9.465075,89.215779,2016-10-19,Closed,Chain
S000801,"Maharaj, Halder and Devi",Supermarket,Maharashtra,Pune,Pune,044566,20.526134,90.804681,2026-03-26,Active,Independent
S000802,"Arora, Sodhi and Vala",Kirana,Delhi,New Delhi,New Delhi,633373,21.799785,89.614136,2024-01-19,Closed,Chain
S000803,"Sidhu, Shenoy and Oak",Pharmacy,Maharashtra,Pune,Pune,536637,22.55287,90.440929,2021-10-23,Active,Independent
S000804,"Balan, Prasad and Dewan",Convenience Store,West Bengal,Kolkata,Kolkata,407553,13.745147,79.464245,2020-10-04,Active,Independent
S000805,Raval-Yogi,Kirana,Tamil Nadu,Chennai,Chennai,590902,15.721456,80.471906,2011-09-24,Active,Independent
S000806,Raman-Raj,Pharmacy,Gujarat,Ahmedabad,Ahmedabad,618637,18.592762,73.524203,2010-03-13,Closed,Independent
S000807,Seth-Modi,Supermarket,Telangana,Hyderabad,Hyderabad,218209,36.641906,85.870409,2023-02-15,Closed,Independent
S000808,Grover and Sons,Kirana,West Bengal,Kolkata,Kolkata,643348,34.802183,74.771198,2008-11-17,Closed,Independent
S000809,Bhandari-Pillay,Kirana,Maharashtra,Pune,Pune,256621,29.447867,75.048401,2010-11-22,Active,Chain
S000810,"Sahota, Sridhar and Biswas",Hypermarket,Maharashtra,Mumbai,Mumbai,323467,28.120062,71.227062,2011-11-26,Closed,Chain
S000811,"Mukherjee, Jain and Thakkar",Hypermarket,Maharashtra,Mumbai,Mumbai,430271,14.061277,83.602158,2020-01-31,Active,Chain
S000812,"Koshy, Vora and Narasimhan",Convenience Store,West Bengal,Kolkata,Kolkata,779014,29.167784,72.099075,2022-01-09,Active,Chain
S000813,Mishra-Raman,Hypermarket,Maharashtra,Mumbai,Mumbai,632967,12.93927,76.236393,2019-08-03,Closed,Independent
S000814,"Goswami, Chandran and Ramaswamy",Kirana,West Bengal,Kolkata,Kolkata,324841,9.931336,87.150812,2013-11-21,Closed,Independent
S000815,Sabharwal-Dara,Hypermarket,Maharashtra,Mumbai,Mumbai,118567,33.154903,86.832923,2012-02-09,Active,Chain
S000816,Johal-Toor,Hypermarket,Maharashtra,Pune,Pune,701765,22.055202,85.316086,2020-02-01,Active,Independent
S000817,Ranganathan Inc,Convenience Store,Tamil Nadu,Chennai,Chennai,412577,36.03695,84.259939,2022-03-13,Active,Independent
S000818,Butala PLC,Convenience Store,Tamil Nadu,Chennai,Chennai,727422,16.842898,82.208053,2007-02-11,Active,Independent
S000819,"Chaudhry, Goel and Menon",Hypermarket,Delhi,New Delhi,New Delhi,862104,18.305966,76.76746,2011-09-21,Closed,Independent
S000820,Parmar-Gokhale,Pharmacy,Telangana,Hyderabad,Hyderabad,083708,33.82166,91.6309,2009-12-30,Active,Chain
S000821,Morar-Sawhney,Supermarket,Tamil Nadu,Chennai,Chennai,900633,17.911798,79.392551,2019-03-31,Active,Independent
S000822,Iyengar Inc,Convenience Store,Gujarat,Ahmedabad,Ahmedabad,600531,35.857565,85.761003,2014-01-02,Active,Chain
S000823,Ganesh Ltd,Convenience Store,Tamil Nadu,Chennai,Chennai,068155,12.429725,96.145578,2025-08-15,Closed,Chain
S000824,"Gupta, Johal and Rana",Supermarket,Karnataka,Bengaluru,Bengaluru Urban,133155,26.921707,84.84989,2012-05-28,Active,Independent
S000825,Ratti Ltd,Convenience Store,Telangana,Hyderabad,Hyderabad,063731,34.377319,80.471865,2015-12-22,Active,Independent
S000826,"Pillay, Bassi and Bhavsar",Kirana,Delhi,New Delhi,New Delhi,649718,24.162869,95.509445,2025-11-12,Active,Independent
S000827,Krishnamurthy Inc,Supermarket,Delhi,New Delhi,New Delhi,625257,29.085306,90.197615,2008-10-18,Closed,Chain
S000828,Badami-Sen,Pharmacy,Telangana,Hyderabad,Hyderabad,838903,29.622682,91.829257,2007-03-22,Closed,Independent
S000829,"Dash, More and Khalsa",Kirana,Tamil Nadu,Chennai,Chennai,391025,11.814831,68.759748,2023-06-20,Closed,Independent
S000830,Jaggi-Doshi,Supermarket,Tamil Nadu,Chennai,Chennai,303975,27.933959,78.418579,2011-01-25,Closed,Independent
S000831,Nadkarni-Baral,Hypermarket,West Bengal,Kolkata,Kolkata,403553,13.335318,79.236348,2013-07-02,Closed,Independent
S000832,"Bhagat, Kothari and Kapadia",Supermarket,Karnataka,Bengaluru,Bengaluru Urban,852701,14.561919,79.849086,2023-03-24,Active,Chain
S000833,Hans Inc,Supermarket,Gujarat,Ahmedabad,Ahmedabad,321298,29.528633,96.659059,2013-06-14,Active,Independent
S000834,Tripathi Inc,Pharmacy,Karnataka,Bengaluru,Bengaluru Urban,742336,33.146741,82.208344,2012-07-02,Closed,Chain
S000835,"Kothari, Mitter and Mangal",Pharmacy,Tamil Nadu,Chennai,Chennai,347156,19.741136,69.212962,2019-05-09,Closed,Chain
S000836,Sinha Group,Convenience Store,Gujarat,Ahmedabad,Ahmedabad,896270,35.235035,84.586099,2019-06-24,Active,Independent
S000837,Chacko-Mital,Pharmacy,West Bengal,Kolkata,Kolkata,824674,31.983293,69.230062,2021-12-07,Active,Chain
S000838,Prashad-Srivastava,Convenience Store,Maharashtra,Mumbai,Mumbai,527323,19.234538,90.189636,2006-08-22,Active,Independent
S000839,Tella Ltd,Pharmacy,Telangana,Hyderabad,Hyderabad,766656,19.543157,76.83207,2023-02-26,Closed,Chain
S000840,Bobal-Rege,Pharmacy,Karnataka,Bengaluru,Bengaluru Urban,169236,16.538172,94.651952,2015-03-09,Active,Chain
S000841,"Pall, Upadhyay and Suresh",Kirana,West Bengal,Kolkata,Kolkata,066337,28.956757,71.281976,2007-09-03,Active,Chain
